# LAS format log file from PETREL
# Project units are specified as depth units
#==================================================================
~Version information
VERS.   2.0:
WRAP.   NO:
#==================================================================
~Well
STRT .m           1170.74 :
STOP .m           2999.99 :
STEP .m        0.15240000 :
NULL .        -999.250000 :
COMP.                     : COMPANY
WELL.           WELLB-2   : WELL
FLD.                      : FIELD
LOC.                      : LOCATION
SRVC.                     : SERVICE COMPANY
DATE.  Wednesday, March 31 2010 12:32:42   : DATE
PROV.                     : PROVINCE
UWI.                      : UNIQUE WELL ID
API.                      : API NUMBER
#==================================================================
~Curve
DEPT    .m                : DEPTH
TVD     .m                : TRUE VERTICAL DEPTH
HRZDISP .m                : HORIZONTAL DISPLACEMENT
ILM .ohm.m                : ILM
ILD .ohm.m                : ILD
RHOB .g/cm3               : RHOB
NPHI .m3/m3               : NPHI
GR .gAPI                  : GR
CALI .in                  : CALI
~Parameter
#==================================================================
#  DEPT              TVD         HRZDISP       ILM          ILD           RHOB         NPHI           GR     CALI
~Ascii
# ...
 1656.89 1364.42  753.96    1.11    0.99    2.55    0.38   28.64 -999.25
 1657.05 1364.52  754.07     1.1    0.95    2.59    0.39   28.16 -999.25
  1657.2 1364.63  754.19    1.05    0.92    2.52    0.39   28.67 -999.25
 1657.35 1364.73   754.3    0.96    0.88    2.52     0.4   31.28 -999.25
  1657.5 1364.83  754.42    0.93    0.84    2.53    0.39   33.28 -999.25
 1657.65 1364.93  754.53    0.93    0.82    2.56    0.41   31.38 -999.25
 1657.81 1365.03  754.64    0.96    0.82    2.55     0.4   31.31 -999.25
 1657.96 1365.13  754.76    0.96    0.82    2.55     0.4   35.07 -999.25
 1658.11 1365.23  754.87    0.97    0.83    2.54     0.4   40.62 -999.25
 1658.26 1365.33  754.99    0.99    0.85    2.57    0.39   39.13 -999.25
 1658.42 1365.43   755.1    1.01    0.87    2.53    0.39   36.56 -999.25
 1658.57 1365.53  755.22    1.04    0.89    2.58     0.4   34.38 -999.25
 1658.72 1365.64  755.33    1.06     0.9    2.51     0.4   36.53 -999.25
 1658.87 1365.74  755.44    1.06     0.9    2.58    0.39    38.5 -999.25
 1659.03 1365.84  755.56    1.06     0.9    2.59     0.4   40.44 -999.25
 1659.18 1365.94  755.67    1.07    0.91    2.55     0.4   39.85 -999.25
 1659.33 1366.04  755.79    1.06    0.92    2.53    0.39      42 -999.25
 1659.48 1366.14   755.9    1.06    0.95    2.55    0.41      40 -999.25
 1659.64 1366.24  756.01    1.07    0.98    2.58     0.4   42.63 -999.25
 1659.79 1366.34  756.13     1.1    1.01    2.51     0.4   40.66 -999.25
 1659.94 1366.44  756.24    1.16    1.05    2.54    0.41      45 -999.25
 1660.09 1366.54  756.36    1.23    1.06    2.58    0.39   46.62 -999.25
 1660.25 1366.65  756.47    1.26    1.06    2.55    0.38   43.81 -999.25
  1660.4 1366.75  756.59    1.26    1.07    2.56    0.39   41.06 -999.25
 1660.55 1366.85   756.7    1.27     1.1    2.53    0.39   39.47 -999.25
  1660.7 1366.95  756.81    1.31    1.11    2.56    0.39   43.22 -999.25
 1660.86 1367.05  756.93    1.36    1.14    2.57    0.38   41.63 -999.25
 1661.01 1367.15  757.04    1.39    1.17    2.55    0.39   37.41 -999.25
 1661.16 1367.25  757.16    1.42    1.15    2.57    0.38   39.16 -999.25
 1661.31 1367.35  757.27    1.43    1.11    2.55     0.4   48.23 -999.25
 1661.46 1367.45  757.38     1.4     1.1    2.56     0.4   55.38 -999.25
 1661.62 1367.55   757.5    1.34    1.08    2.51    0.38   57.84 -999.25
 1661.77 1367.65  757.61    1.28    1.09    2.58    0.39   52.56 -999.25
 1661.92 1367.76  757.73    1.29    1.09    2.59     0.4   51.75 -999.25
 1662.07 1367.86  757.84    1.31    1.07    2.55     0.4   48.94 -999.25
 1662.23 1367.96  757.96     1.3    1.08    2.55    0.39   50.91 -999.25
 1662.38 1368.06  758.07    1.29    1.11    2.58    0.39   48.59 -999.25
 1662.53 1368.16  758.18    1.31    1.15     2.5    0.38   41.84 -999.25
 1662.68 1368.26   758.3    1.35    1.17    2.59    0.39      34 -999.25
 1662.84 1368.36  758.41    1.41    1.13    2.51     0.4      32 -999.25
 1662.99 1368.46  758.53    1.34    1.11    2.52    0.38      39 -999.25
 1663.14 1368.56  758.64    1.23     1.1    2.57    0.38   46.47 -999.25
 1663.29 1368.66  758.75    1.22     1.1    2.53    0.39   57.09 -999.25
 1663.45 1368.77  758.87    1.24    1.07    2.55    0.38   55.47 -999.25
  1663.6 1368.87  758.98    1.25    1.03    2.58    0.39   52.19 -999.25
 1663.75 1368.97   759.1    1.27    1.02    2.53     0.4   41.62 -999.25
  1663.9 1369.07  759.21    1.36    1.07    2.59    0.38   37.21 -999.25
 1664.06 1369.17  759.33    1.45    1.13    2.51     0.4   31.42 -999.25
 1664.21 1369.27  759.44    1.51    1.19    2.59    0.39   28.81 -999.25
 1664.36 1369.37  759.55    1.55    1.28    2.57    0.38   26.36 -999.25
 1664.51 1369.47  759.67    1.63    1.37    2.53    0.41   30.27 -999.25
 1664.67 1369.55   759.8    1.68    1.43    2.58     0.4   32.35 -999.25
 1664.82 1369.65  759.92    1.68    1.45     2.5    0.38   36.03 -999.25
 1664.97 1369.75  760.03    1.66    1.49    2.54    0.41   35.41 -999.25
 1665.12 1369.86  760.15    1.67     1.5    2.51     0.4   38.32 -999.25
 1665.27 1369.96  760.26    1.69    1.46    2.59    0.39   42.32 -999.25
 1665.43 1370.06  760.38    1.71    1.43    2.57     0.4   44.84 -999.25
 1665.58 1370.16  760.49    1.68    1.43    2.57    0.41   43.41 -999.25
 1665.73 1370.26  760.61    1.65    1.44    2.52     0.4   41.47 -999.25
 1665.88 1370.36  760.72    1.62    1.41    2.58     0.4   43.75 -999.25
 1666.04 1370.46  760.83    1.57    1.36    2.57     0.4   42.84 -999.25
 1666.19 1370.56  760.95    1.46    1.29     2.5    0.41   40.19 -999.25
 1666.34 1370.66  761.06    1.39    1.21    2.53    0.38   36.94 -999.25
 1666.49 1370.76  761.18    1.35    1.13    2.54     0.4   38.32 -999.25
 1666.65 1370.86  761.29    1.33    1.08    2.53    0.41    44.5 -999.25
  1666.8 1370.96  761.41    1.33    1.05    2.54     0.4   41.38 -999.25
 1666.95 1371.06  761.52    1.32    1.04    2.52     0.4   42.56 -999.25
  1667.1 1371.17  761.63    1.31    1.03    2.58     0.4   40.09 -999.25
 1667.26 1371.27  761.75    1.29    1.03    2.53    0.38   41.69 -999.25
 1667.41 1371.37  761.86    1.29    1.03    2.54     0.4   40.72 -999.25
 1667.56 1371.47  761.98    1.28       1    2.59    0.41   38.09 -999.25
 1667.71 1371.57  762.09    1.26    0.99    2.52    0.39   40.12 -999.25
 1667.87 1371.67  762.21    1.25       1    2.54    0.39   39.56 -999.25
 1668.02 1371.77  762.32    1.26    1.01    2.57     0.4   39.97 -999.25
 1668.17 1371.87  762.44    1.25    1.01    2.51    0.41   37.88 -999.25
 1668.32 1371.97  762.55    1.23    1.01    2.58     0.4   35.66 -999.25
 1668.48 1372.07  762.66    1.24    1.04    2.59     0.4   37.75 -999.25
 1668.63 1372.17  762.78    1.27    1.05    2.54    0.39   40.38 -999.25
 1668.78 1372.27  762.89    1.28    1.02    2.56     0.4   45.78 -999.25
 1668.93 1372.37  763.01    1.28    1.05    2.56    0.39   46.34 -999.25
 1669.08 1372.48  763.12    1.28    1.11    2.51    0.41   45.78 -999.25
 1669.24 1372.58  763.24    1.29    1.11    2.52    0.38    38.9 -999.25
 1669.39 1372.68  763.35    1.41     1.1    2.52     0.4   36.31 -999.25
 1669.54 1372.78  763.46    1.52     1.1    2.52    0.39   34.19 -999.25
 1669.69 1372.88  763.58    1.47    1.08    2.58     0.4   36.25 -999.25
 1669.85 1372.98  763.69    1.38    1.07    2.58    0.39   36.22 -999.25
    1670 1373.08  763.81    1.35    1.09    2.54     0.4   36.25 -999.25
 1670.15 1373.18  763.92    1.34    1.08    2.58    0.38   38.41 -999.25
  1670.3 1373.28  764.04    1.36    1.07    2.56    0.39    40.5 -999.25
 1670.46 1373.38  764.15    1.38    1.07    2.54    0.41   43.19 -999.25
 1670.61 1373.48  764.27    1.38    1.06    2.53     0.4   44.78 -999.25
 1670.76 1373.58  764.38    1.39    1.04    2.58     0.4   48.56 -999.25
 1670.91 1373.68  764.49    1.37       1    2.52     0.4   52.31 -999.25
 1671.07 1373.78  764.61    1.24    0.97    2.54    0.39   57.59 -999.25
 1671.22 1373.89  764.72    1.26    0.98    2.51    0.39   54.75 -999.25
 1671.37 1373.99  764.84    1.28    0.97    2.53    0.39   51.53 -999.25
 1671.52 1374.09  764.95    1.29    0.96     2.6     0.4   50.69 -999.25
 1671.68 1374.19  765.07    1.28    0.93    2.55    0.39   50.62 -999.25
 1671.83 1374.29  765.18    1.28    0.89    2.54    0.39   47.06 -999.25
 1671.98 1374.39  765.29    1.22     0.9    2.58    0.38   38.94 -999.25
 1672.13 1374.49  765.41    1.18    0.96    2.56    0.38   34.41 -999.25
 1672.29 1374.59  765.52    1.23    1.01    2.55    0.38   32.78 -999.25
 1672.44 1374.69  765.64    1.38    1.04    2.59    0.39   36.38 -999.25
 1672.59 1374.79  765.75    1.46    1.05     2.5    0.39   36.35 -999.25
 1672.74 1374.89  765.87     1.5    1.06    2.54    0.41   39.22 -999.25
 1672.89 1374.99  765.98    1.54    1.07    2.58     0.4   36.56 -999.25
 1673.05 1375.09   766.1    1.55    1.06    2.52    0.39   36.62 -999.25
  1673.2  1375.2  766.21    1.48    1.03    2.56    0.41   34.75 -999.25
 1673.35  1375.3  766.32    1.47    1.02    2.52    0.39   30.08 -999.25
  1673.5  1375.4  766.44    1.51    1.02    2.55    0.39   31.11 -999.25
