# LAS format log file from PETREL
# Project units are specified as depth units
#==================================================================
~Version information
VERS.   2.0:
WRAP.   NO:
#==================================================================
~Well
STRT .m           1170.74 :
STOP .m           2999.99 :
STEP .m        0.15240000 :
NULL .        -999.250000 :
COMP.                     : COMPANY
WELL.           WELLB-2   : WELL
FLD.                      : FIELD
LOC.                      : LOCATION
SRVC.                     : SERVICE COMPANY
DATE.  Wednesday, March 31 2010 12:32:42   : DATE
PROV.                     : PROVINCE
UWI.                      : UNIQUE WELL ID
API.                      : API NUMBER
#==================================================================
~Curve
DEPT    .m                : DEPTH
TVD     .m                : TRUE VERTICAL DEPTH
HRZDISP .m                : HORIZONTAL DISPLACEMENT
ILM .ohm.m                : ILM
ILD .ohm.m                : ILD
RHOB .g/cm3               : RHOB
NPHI .m3/m3               : NPHI
GR .gAPI                  : GR
CALI .in                  : CALI
~Parameter
#==================================================================
#  DEPT              TVD         HRZDISP       ILM          ILD           RHOB         NPHI           GR     CALI
~Ascii
# ...
 1539.54 1286.35  666.37   12.31    9.48    2.51     0.4    27.3 -999.25
  1539.7 1286.45  666.48   14.69    9.88    2.54     0.4   26.78 -999.25
 1539.85 1286.55   666.6   17.16   10.09    2.55     0.4   27.73 -999.25
    1540 1286.65  666.71   17.03   10.89     2.6    0.39   26.64 -999.25
 1540.15 1286.75  666.83    18.1   11.75    2.51     0.4   25.62 -999.25
 1540.31 1286.85  666.94   19.83   12.32    2.56     0.4   23.03 -999.25
 1540.46 1286.95  667.06   20.83   12.34    2.57     0.4   22.48 -999.25
 1540.61 1287.05  667.17   21.42   12.33    2.53    0.39   24.55 -999.25
 1540.76 1287.15  667.29   25.25   11.25    2.53     0.4   23.45 -999.25
 1540.92 1287.25   667.4   19.87   11.23    2.51    0.38   23.95 -999.25
 1541.07 1287.35  667.52   16.84   11.02    2.52     0.4   23.95 -999.25
 1541.22 1287.45  667.63   13.77   10.84    2.55    0.38   26.16 -999.25
 1541.37 1287.55  667.75   14.39   10.59    2.58     0.4   30.47 -999.25
 1541.53 1287.65  667.86   14.68   10.65    2.51    0.39   30.53 -999.25
 1541.68 1287.75  667.98   16.31   10.53    2.56    0.41   28.97 -999.25
 1541.83 1287.85  668.09   15.13    9.98     2.5     0.4   24.09 -999.25
 1541.98 1287.95   668.2   14.17   10.41    2.53    0.38   20.34 -999.25
 1542.14 1288.05  668.32   14.19   10.49    2.54    0.41    21.3 -999.25
 1542.29 1288.15  668.43   14.48   11.06     2.6     0.4    21.3 -999.25
 1542.44 1288.25  668.55   14.43   11.48    2.59    0.38   21.77 -999.25
 1542.59 1288.35  668.66   14.32   11.74     2.5     0.4    19.7 -999.25
 1542.75 1288.45  668.78    15.3   12.25    2.56    0.39    20.3 -999.25
  1542.9 1288.55  668.89   17.73   12.96    2.58     0.4   20.41 -999.25
 1543.05 1288.66  669.01   15.19   13.69    2.52    0.38   21.48 -999.25
  1543.2 1288.76  669.12   16.47   14.26    2.57    0.38   23.59 -999.25
 1543.35 1288.86  669.24   19.31   15.56    2.54    0.38   26.22 -999.25
 1543.51 1288.96  669.35   19.94    15.6    2.58    0.39   25.58 -999.25
 1543.66 1289.06  669.47    20.2      16    2.58    0.39   22.35 -999.25
 1543.81 1289.16  669.58   21.14   16.58    2.51    0.39   21.78 -999.25
 1543.96 1289.26   669.7   21.61   16.67    2.53    0.41   24.47 -999.25
 1544.12 1289.54  669.65   22.11   16.94    2.52    0.41   27.25 -999.25
 1544.27 1289.64  669.76   22.28    17.3     2.5     0.4   25.13 -999.25
 1544.42 1289.74  669.87   22.25    17.3    2.57     0.4   26.25 -999.25
 1544.57 1289.84  669.99   23.41   17.44     2.5     0.4   26.77 -999.25
 1544.73 1289.95   670.1    23.7   17.48    2.58    0.39   27.25 -999.25
 1544.88 1290.05  670.21    23.7    17.2    2.53     0.4   25.59 -999.25
 1545.03 1290.15  670.32   24.42   16.77    2.53    0.39   23.89 -999.25
 1545.18 1290.25  670.44   24.42   16.67    2.58    0.38    21.8 -999.25
 1545.34 1290.36  670.55   24.86   16.66    2.57    0.39   21.31 -999.25
 1545.49 1290.46  670.66   24.06   16.81    2.51     0.4   19.78 -999.25
 1545.64 1290.56  670.78   24.31   16.89    2.54    0.41   22.53 -999.25
 1545.79 1290.66  670.89   25.44   17.06    2.53    0.39   21.47 -999.25
 1545.95 1290.76     671   26.64   17.55    2.54    0.38   23.14 -999.25
  1546.1 1290.87  671.12   27.34   18.06     2.6     0.4   20.89 -999.25
 1546.25 1290.97  671.23   28.31   18.97    2.56     0.4   22.43 -999.25
  1546.4 1291.07  671.34   28.83   19.81    2.56    0.39   19.14 -999.25
 1546.56 1291.17  671.45   30.72   20.75    2.58    0.39   20.75 -999.25
 1546.71 1291.28  671.57   31.77    21.7    2.58     0.4   19.17 -999.25
 1546.86 1291.38  671.68   33.57   22.99    2.56    0.38   23.97 -999.25
 1547.01 1291.48  671.79   37.13   24.09    2.53    0.39   25.08 -999.25
 1547.16 1291.58  671.91   40.78   25.55    2.54    0.39   24.58 -999.25
 1547.32 1291.69  672.02   44.85   27.11    2.59     0.4   21.94 -999.25
 1547.47 1291.79  672.13   48.72    29.2    2.54    0.41   20.27 -999.25
 1547.62 1291.89  672.25   52.37   31.23    2.51    0.39   19.73 -999.25
 1547.77 1291.99  672.36   55.75   33.13     2.6    0.38   19.19 -999.25
 1547.93 1292.09  672.47   60.56   35.44    2.55    0.38   19.23 -999.25
 1548.08  1292.2  672.58   66.26   38.25    2.58    0.41    19.2 -999.25
 1548.23  1292.3   672.7   75.64   42.13    2.56    0.39   18.09 -999.25
 1548.38  1292.4  672.81   87.38   45.31    2.58    0.39   18.66 -999.25
 1548.54  1292.5  672.92   84.75   48.41    2.52     0.4   22.84 -999.25
 1548.69 1292.61  673.04    80.5    52.6    2.57    0.41   24.45 -999.25
 1548.84 1292.71  673.15    86.7   54.63    2.54    0.38   27.14 -999.25
 1548.99 1292.81  673.26   94.75   56.22    2.59    0.39   24.02 -999.25
 1549.15 1292.91  673.38   102.5    57.5    2.52     0.4   25.19 -999.25
  1549.3 1293.01  673.49   109.5   58.25     2.5    0.39      23 -999.25
 1549.45 1293.12   673.6  115.12   59.66    2.51    0.38   25.69 -999.25
  1549.6 1293.22  673.72  113.94   61.28    2.51     0.4   24.48 -999.25
 1549.76 1293.32  673.83  121.31   60.69    2.56     0.4   22.38 -999.25
 1549.91 1293.42  673.94  122.62   62.84    2.56    0.38   19.61 -999.25
 1550.06 1293.53  674.05  122.62    62.6    2.58     0.4   17.56 -999.25
 1550.21 1293.63  674.17  125.36   65.81    2.53     0.4   19.22 -999.25
 1550.37 1293.73  674.28  118.75   64.31    2.55    0.39   18.75 -999.25
 1550.52 1293.83  674.39  129.62      65    2.57     0.4   23.08 -999.25
 1550.67 1293.93  674.51  134.37   65.06    2.55    0.39   21.94 -999.25
 1550.82 1294.04  674.62  125.37   65.38    2.56    0.38   24.62 -999.25
 1550.97 1294.14  674.73  126.81   65.63    2.56    0.39   20.84 -999.25
 1551.13 1294.24  674.85  116.31   65.88    2.51    0.38   22.88 -999.25
 1551.28 1294.34  674.96  128.25   64.94    2.52    0.38   20.67 -999.25
 1551.43 1294.45  675.07  121.31   63.25    2.52    0.39   25.45 -999.25
 1551.58 1294.55  675.18  121.31   60.56    2.52     0.4   24.02 -999.25
 1551.74 1294.65   675.3     120   58.94    2.51    0.39   23.02 -999.25
 1551.89 1294.75  675.41  112.81   55.34     2.6     0.4    21.5 -999.25
 1552.04 1294.85  675.52   96.36   53.12    2.57     0.4   21.97 -999.25
 1552.19 1294.96  675.64   75.12   49.19    2.55    0.39   23.03 -999.25
 1552.35 1295.06  675.75   65.88   47.16    2.53    0.41   21.84 -999.25
  1552.5 1295.16  675.86   66.25   46.16    2.55    0.38   22.84 -999.25
 1552.65 1295.26  675.98   68.25   46.19    2.51    0.39   24.87 -999.25
  1552.8 1295.37  676.09   69.13   46.19    2.59    0.39   22.78 -999.25
 1552.96 1295.47   676.2   70.88   46.53    2.51     0.4   19.64 -999.25
 1553.11 1295.57  676.31   74.63   47.31    2.52    0.39   16.59 -999.25
 1553.26 1295.67  676.43   81.06   47.06    2.53    0.39    18.2 -999.25
 1553.41 1295.78  676.54   79.94   46.28    2.57     0.4   19.84 -999.25
 1553.57 1295.88  676.65   76.63   44.59    2.53     0.4   20.28 -999.25
 1553.72 1295.98  676.77   75.13   42.44    2.52    0.41    21.3 -999.25
 1553.87 1296.08  676.88   76.13   40.47    2.52    0.39    20.8 -999.25
 1554.02 1296.18  676.99   68.68   38.62    2.55    0.39   22.92 -999.25
 1554.18 1296.29  677.11   58.65   36.87    2.54    0.39   22.45 -999.25
 1554.33 1296.39  677.22   47.91   35.72    2.57     0.4      24 -999.25
 1554.48 1296.49  677.33    39.5   34.41    2.51    0.39   20.84 -999.25
 1554.63 1296.59  677.44   35.25   33.91    2.58     0.4   20.86 -999.25
 1554.78  1296.7  677.56   33.75   33.88    2.56     0.4    19.3 -999.25
 1554.94  1296.8  677.67   33.16   34.91    2.52    0.38   22.41 -999.25
 1555.09  1296.9  677.78   32.78   36.75    2.55     0.4   21.83 -999.25
 1555.24    1297   677.9   32.78   40.75     2.5     0.4   23.44 -999.25
 1555.39  1297.1  678.01   33.38   44.41    2.52    0.38   22.42 -999.25
 1555.55 1297.21  678.12   33.87   45.25    2.58    0.41    22.5 -999.25
  1555.7 1297.31  678.24   33.06   47.34    2.53     0.4   22.98 -999.25
 1555.85 1297.41  678.35   31.59   46.56     2.6     0.4   24.52 -999.25
    1556 1297.51  678.46   29.83    41.5    2.52    0.39   25.05 -999.25
 1556.16 1297.62  678.57   27.55    37.5    2.56    0.39   23.39 -999.25
