# LAS format log file from PETREL
# Project units are specified as depth units
#==================================================================
~Version information
VERS.   2.0:
WRAP.   NO:
#==================================================================
~Well
STRT .m           1170.74 :
STOP .m           2999.99 :
STEP .m        0.15240000 :
NULL .        -999.250000 :
COMP.                     : COMPANY
WELL.           WELLB-2   : WELL
FLD.                      : FIELD
LOC.                      : LOCATION
SRVC.                     : SERVICE COMPANY
DATE.  Wednesday, March 31 2010 12:32:42   : DATE
PROV.                     : PROVINCE
UWI.                      : UNIQUE WELL ID
API.                      : API NUMBER
#==================================================================
~Curve
DEPT    .m                : DEPTH
TVD     .m                : TRUE VERTICAL DEPTH
HRZDISP .m                : HORIZONTAL DISPLACEMENT
ILM .ohm.m                : ILM
ILD .ohm.m                : ILD
RHOB .g/cm3               : RHOB
NPHI .m3/m3               : NPHI
GR .gAPI                  : GR
CALI .in                  : CALI
~Parameter
#==================================================================
#  DEPT              TVD         HRZDISP       ILM          ILD           RHOB         NPHI           GR     CALI
~Ascii
# ...
  2260.4 1745.45 1221.83    1.51    1.61    2.54    0.39   67.29 -999.25
 2260.55 1745.55 1221.95    1.76    1.67    2.54    0.38   68.39 -999.25
  2260.7 1745.65 1222.06     1.5    1.66     2.6    0.39    71.5 -999.25
 2260.85 1745.75 1222.18    1.59    1.86     2.5     0.4    66.8 -999.25
 2261.01 1745.85 1222.29    1.49    1.47    2.51    0.39   70.96 -999.25
 2261.16 1745.95 1222.41    1.55    1.48    2.57    0.38   67.92 -999.25
 2261.31 1746.05 1222.52    1.35    1.98    2.55    0.38   71.42 -999.25
 2261.46 1746.15 1222.64    1.52     1.6     2.6     0.4   70.43 -999.25
 2261.62 1746.25 1222.75    1.95    1.36    2.56    0.39   68.54 -999.25
 2261.77 1746.35 1222.87    1.51    1.19    2.56    0.41   66.12 -999.25
 2261.92 1746.45 1222.98    1.67    1.83    2.54    0.38   67.84 -999.25
 2262.07 1746.55  1223.1    1.68    1.42    2.56     0.4   68.16 -999.25
 2262.23 1746.65 1223.21    1.61    1.34    2.54     0.4   65.67 -999.25
 2262.38 1746.75 1223.33    1.61    1.55    2.56     0.4   66.98 -999.25
 2262.53 1746.85 1223.44    1.67    2.34    2.51    0.39   69.44 -999.25
 2262.68 1746.95 1223.56    1.52    1.26    2.51     0.4   71.62 -999.25
 2262.84 1747.05 1223.67    1.66    1.71    2.53     0.4   67.95 -999.25
 2262.99 1747.15 1223.79    1.74    1.45    2.59     0.4   67.25 -999.25
 2263.14 1747.25  1223.9    1.58    1.96    2.54     0.4   67.54 -999.25
 2263.29 1747.35 1224.02    1.56    1.65    2.57    0.39   67.02 -999.25
 2263.44 1747.45 1224.13    1.44    1.37    2.57    0.38   69.61 -999.25
  2263.6 1747.55 1224.25    1.02    1.22     2.6    0.39    69.8 -999.25
 2263.75 1747.65 1224.36    2.27    1.39    2.55    0.41   69.63 -999.25
  2263.9 1747.75 1224.48    2.08    1.65    2.59    0.39   67.81 -999.25
 2264.05 1747.85 1224.59    2.34    1.76    2.57     0.4   70.29 -999.25
 2264.21 1747.95  1224.7    1.56    1.43    2.51     0.4   66.81 -999.25
 2264.36 1748.05 1224.82     1.4    2.52    2.52    0.39   68.18 -999.25
 2264.51 1748.15 1224.93    1.74    1.83    2.54    0.41   66.28 -999.25
 2264.66 1748.25 1225.05    1.88     1.2    2.53     0.4   66.79 -999.25
 2264.82 1748.36 1225.16    2.28     1.8     2.6    0.41   70.25 -999.25
 2264.97 1748.46 1225.28     1.6    1.22    2.52    0.38   69.97 -999.25
 2265.12 1748.56 1225.39    1.67    1.34    2.55    0.39   69.03 -999.25
 2265.27 1748.66 1225.51     1.5     1.6    2.56     0.4   68.05 -999.25
 2265.43 1748.76 1225.62    1.97    1.73    2.52    0.39   65.84 -999.25
 2265.58 1748.86 1225.74     1.5    1.63    2.58    0.41    65.6 -999.25
 2265.73 1748.96 1225.85    1.54    1.06    2.59     0.4   70.05 -999.25
 2265.88 1749.06 1225.97    1.52    1.59     2.6    0.39    68.2 -999.25
 2266.04 1749.16 1226.08    1.49    1.44    2.55    0.38   69.95 -999.25
 2266.19 1749.26  1226.2    1.59    1.44    2.53    0.39    69.3 -999.25
 2266.34 1749.36 1226.31    1.74     1.6    2.55     0.4   68.75 -999.25
 2266.49 1749.46 1226.43    1.42    1.53    2.53     0.4   67.42 -999.25
 2266.65 1749.56 1226.54    1.56    2.52    2.55    0.38   70.26 -999.25
  2266.8 1749.66 1226.66    1.08    1.17    2.52    0.39   65.59 -999.25
 2266.95 1749.76 1226.77    1.48    1.39     2.5    0.41      66 -999.25
  2267.1 1749.86 1226.89    1.83    2.07    2.57    0.41   71.18 -999.25
 2267.25 1749.96    1227    1.48    1.53    2.58    0.39   67.33 -999.25
 2267.41 1750.06 1227.12    2.02    1.47    2.58     0.4   71.53 -999.25
 2267.56 1750.16 1227.23    1.42    1.15    2.52    0.38   71.86 -999.25
 2267.71 1750.26 1227.35    1.38    1.59    2.59    0.39   71.52 -999.25
 2267.86 1750.36 1227.46    2.07    1.75    2.59     0.4   68.67 -999.25
 2268.02 1750.46 1227.58    1.62    1.19     2.6     0.4   70.62 -999.25
 2268.17 1750.56 1227.69    1.37     1.7    2.52    0.39   68.05 -999.25
 2268.32 1750.66 1227.81    1.44    1.41    2.51     0.4   65.62 -999.25
 2268.47 1750.76 1227.92    1.94    1.26    2.51    0.39    69.2 -999.25
 2268.63 1750.86 1228.04    1.28    2.07    2.53    0.39   66.66 -999.25
 2268.78 1750.96 1228.15    1.17    1.85    2.57     0.4   67.93 -999.25
 2268.93 1751.06 1228.27    1.46    1.54    2.56    0.41   67.42 -999.25
 2269.08 1751.16 1228.38    1.58    2.04    2.58    0.39   71.51 -999.25
 2269.24 1751.26  1228.5     1.7    2.17    2.57    0.41   67.96 -999.25
 2269.39 1751.36 1228.61    1.78    1.32    2.53    0.41    70.6 -999.25
 2269.54 1751.46 1228.73    1.51    1.62    2.58    0.38   67.23 -999.25
 2269.69 1751.56 1228.84    1.18    1.44    2.54    0.39   68.08 -999.25
 2269.85 1751.66 1228.95    1.38    1.03    2.52     0.4   65.51 -999.25
    2270 1751.76 1229.07    1.27     1.9    2.59    0.38   68.29 -999.25
 2270.15 1751.86 1229.18    1.45    1.54    2.59    0.39   68.74 -999.25
  2270.3 1751.96  1229.3    1.59    1.89    2.59     0.4   66.89 -999.25
 2270.46 1752.06 1229.41    1.93    1.53    2.58    0.39   68.97 -999.25
 2270.61 1752.16 1229.53    1.72    1.41    2.52     0.4   69.27 -999.25
 2270.76 1752.26 1229.64     1.8     1.2    2.52    0.38   70.94 -999.25
 2270.91 1752.36 1229.76     1.5     1.6    2.54    0.39   66.11 -999.25
 2271.06 1752.46 1229.87    1.21     1.9    2.58     0.4   66.46 -999.25
 2271.22 1752.56 1229.99    1.58    1.23    2.53     0.4   65.11 -999.25
 2271.37 1752.66  1230.1    1.71    1.39    2.53     0.4   71.58 -999.25
 2271.52 1752.76 1230.22     1.5    1.45    2.52    0.38   67.12 -999.25
 2271.67 1752.86 1230.33    2.36    1.35    2.54    0.41   69.34 -999.25
 2271.83 1752.96 1230.45    1.22    1.39    2.53     0.4    67.6 -999.25
 2271.98 1753.06 1230.56    1.25    1.36    2.59    0.41   71.02 -999.25
 2272.13 1753.16 1230.68    1.46    1.12    2.57    0.41   67.62 -999.25
 2272.28 1753.26 1230.79    1.57    1.43    2.52     0.4   71.93 -999.25
 2272.44 1753.36 1230.91     1.5    1.39    2.55    0.38   65.42 -999.25
 2272.59 1753.46 1231.02    1.39    1.37    2.55    0.41   68.23 -999.25
 2272.74 1753.56 1231.14    1.93    1.38    2.52     0.4   71.22 -999.25
 2272.89 1753.66 1231.25    1.43    1.93    2.59     0.4   65.76 -999.25
 2273.05 1753.76 1231.37    2.35    1.38    2.54    0.39   68.31 -999.25
  2273.2 1753.86 1231.48    2.27    1.45    2.53     0.4   65.27 -999.25
 2273.35 1753.96  1231.6    2.05    1.62    2.58     0.4   70.86 -999.25
  2273.5 1754.06 1231.71     2.3    1.48    2.54     0.4   66.19 -999.25
 2273.66 1754.16 1231.83    1.23    1.57    2.56    0.38   69.84 -999.25
 2273.81 1754.26 1231.94    2.66    1.59    2.58    0.39   68.14 -999.25
 2273.96 1754.36 1232.06    1.55     1.5    2.56    0.38   71.95 -999.25
 2274.11 1754.46 1232.17    1.44    2.58    2.58    0.39   68.24 -999.25
 2274.27 1754.56 1232.29    2.32    1.42    2.59    0.38   67.63 -999.25
 2274.42 1754.66  1232.4     1.8    1.47    2.55    0.39   68.54 -999.25
 2274.57 1754.76 1232.52    1.84    1.91    2.59    0.39   66.83 -999.25
 2274.72 1754.87 1232.63    1.49    1.47    2.51    0.39   71.04 -999.25
 2274.87 1754.97 1232.75    1.44    1.45    2.52     0.4   70.23 -999.25
 2275.03 1755.07 1232.86    1.68    1.45    2.52    0.41   68.98 -999.25
 2275.18 1755.17 1232.97    1.21    1.49    2.55    0.38   66.15 -999.25
 2275.33 1755.27 1233.09    1.55    2.05    2.57     0.4   69.43 -999.25
 2275.48 1755.37  1233.2    1.67    1.79     2.5     0.4   71.54 -999.25
 2275.64 1755.47 1233.32    1.58    1.82    2.53    0.41   69.46 -999.25
 2275.79 1755.57 1233.43    2.17    1.82    2.59     0.4   66.85 -999.25
 2275.94 1755.67 1233.55    1.96    1.44    2.54     0.4   69.84 -999.25
 2276.09 1755.77 1233.66    1.54    1.32    2.51     0.4   66.39 -999.25
 2276.25 1755.87 1233.78    1.68    2.47    2.59    0.39   65.59 -999.25
  2276.4 1755.97 1233.89    1.39    1.21    2.59    0.41   70.62 -999.25
 2276.55 1756.07 1234.01    1.15    1.61    2.51     0.4   66.58 -999.25
  2276.7 1756.17 1234.12    1.71    1.45    2.58    0.39   68.02 -999.25
 2276.86 1756.27 1234.24    1.64    1.47    2.56    0.39   70.55 -999.25
 2277.01 1756.37 1234.35     1.5    1.79    2.51     0.4   68.07 -999.25
