# LAS format log file from PETREL
# Project units are specified as depth units
#==================================================================
~Version information
VERS.   2.0:
WRAP.   NO:
#==================================================================
~Well
STRT .m           1170.74 :
STOP .m           2999.99 :
STEP .m        0.15240000 :
NULL .        -999.250000 :
COMP.                     : COMPANY
WELL.           WELLB-2   : WELL
FLD.                      : FIELD
LOC.                      : LOCATION
SRVC.                     : SERVICE COMPANY
DATE.  Wednesday, March 31 2010 12:32:42   : DATE
PROV.                     : PROVINCE
UWI.                      : UNIQUE WELL ID
API.                      : API NUMBER
#==================================================================
~Curve
DEPT    .m                : DEPTH
TVD     .m                : TRUE VERTICAL DEPTH
HRZDISP .m                : HORIZONTAL DISPLACEMENT
ILM .ohm.m                : ILM
ILD .ohm.m                : ILD
RHOB .g/cm3               : RHOB
NPHI .m3/m3               : NPHI
GR .gAPI                  : GR
CALI .in                  : CALI
~Parameter
#==================================================================
#  DEPT              TVD         HRZDISP       ILM          ILD           RHOB         NPHI           GR     CALI
~Ascii
# ...
  2863.9 2145.03 1673.79    1.53    1.47     2.4    0.45   66.75    8.51
 2864.05 2145.13  1673.9    1.52    1.47    2.41    0.46   65.81    8.47
 2864.21 2145.24    1674    1.49    1.47    2.38    0.49   66.37    8.48
 2864.36 2145.35 1674.11    1.46    1.46    2.35    0.46   70.06    8.48
 2864.51 2145.46 1674.22    1.44    1.45    2.34    0.47   70.37    8.48
 2864.66 2145.57 1674.33    1.43    1.42    2.35    0.47   73.68    8.48
 2864.82 2145.68 1674.43    1.42     1.4    2.36    0.46   71.13    8.47
 2864.97 2145.78 1674.54    1.42    1.39    2.36    0.45   75.24    8.48
 2865.12 2145.89 1674.65    1.42    1.39    2.35    0.45   70.87    8.48
 2865.27    2146 1674.75    1.44    1.39    2.35    0.44   71.75    8.49
 2865.42 2146.11 1674.86    1.44    1.39    2.35    0.46   68.18    8.48
 2865.58 2146.22 1674.97    1.44    1.39    2.36    0.46   69.56    8.49
 2865.73 2146.33 1675.08    1.42    1.38    2.37    0.49    70.5    8.48
 2865.88 2146.43 1675.18     1.4    1.37    2.37    0.47   72.12    8.48
 2866.03 2146.54 1675.29    1.39    1.36    2.36    0.48   71.68    8.48
 2866.19 2146.65  1675.4    1.37    1.34    2.35    0.44   73.12    8.47
 2866.34 2146.76  1675.5    1.36    1.32    2.34    0.47   70.87    8.47
 2866.49 2146.87 1675.61    1.35    1.31    2.34    0.43      72    8.48
 2866.64 2146.98 1675.72    1.35     1.3    2.35    0.44   69.93    8.47
  2866.8 2147.08 1675.83    1.35    1.29    2.35    0.47    70.5    8.48
 2866.95 2147.19 1675.93    1.35    1.29    2.34    0.49   71.06    8.48
  2867.1  2147.3 1676.04    1.35    1.29    2.34    0.45    74.5    8.49
 2867.25 2147.41 1676.15    1.35     1.3    2.35    0.44   74.43    8.48
 2867.41 2147.52 1676.26    1.35    1.31    2.34    0.44   77.12    8.48
 2867.56 2147.63 1676.36    1.37    1.33    2.36    0.46      74    8.48
 2867.71 2147.73 1676.47    1.39    1.34    2.35    0.44   74.43    8.48
 2867.86 2147.84 1676.58    1.41    1.36    2.36    0.47   73.93    8.48
 2868.02 2147.95 1676.68    1.44    1.37    2.37    0.49   72.18    8.49
 2868.17 2148.06 1676.79    1.45    1.38    2.39    0.48   72.06    8.52
 2868.32 2148.17  1676.9    1.44    1.38    2.38    0.49   65.93    8.49
 2868.47 2148.27 1677.01    1.43    1.38    2.36    0.43   67.37    8.48
 2868.63 2148.38 1677.11    1.42    1.38    2.34    0.45   67.25     8.5
 2868.78 2148.49 1677.22    1.41    1.38    2.33    0.44   71.06     8.5
 2868.93  2148.6 1677.33     1.4    1.37    2.34    0.44   69.37     8.5
 2869.08 2148.71 1677.43    1.39    1.35    2.34    0.44   69.06    8.49
 2869.23 2148.82 1677.54    1.39    1.34    2.36    0.48   69.93    8.49
 2869.39 2148.92 1677.65    1.39    1.33    2.36    0.44   69.12    8.48
 2869.54 2149.03 1677.76    1.38    1.33    2.36    0.46   69.81    8.48
 2869.69 2149.14 1677.86    1.38    1.33    2.34    0.45   67.06    8.48
 2869.84 2149.25 1677.97    1.38    1.33    2.33    0.46   72.56    8.46
    2870 2149.36 1678.08    1.37    1.32    2.31     0.5   74.12    8.48
 2870.15 2149.47 1678.19    1.36    1.31    2.32    0.47   74.67    8.49
  2870.3 2149.57 1678.29    1.35    1.31    2.32    0.44   70.81    8.48
 2870.45 2149.68  1678.4    1.35     1.3    2.32    0.43   71.56    8.46
 2870.61 2149.79 1678.51    1.34    1.29    2.32    0.49   74.56    8.47
 2870.76  2149.9 1678.61    1.34    1.29    2.32    0.49   76.75    8.47
 2870.91 2150.01 1678.72    1.34    1.29    2.32    0.43   75.56    8.47
 2871.06 2150.12 1678.83    1.34    1.29    2.32    0.46   70.62    8.47
 2871.22 2150.22 1678.94    1.35     1.3    2.33    0.48   71.87    8.48
 2871.37 2150.33 1679.04    1.35     1.3    2.33    0.44   69.43    8.48
 2871.52 2150.44 1679.15    1.36    1.31    2.33    0.49   72.37    8.47
 2871.67 2150.55 1679.26    1.37    1.32    2.32    0.49   71.75    8.47
 2871.83 2150.66 1679.36    1.38    1.33    2.33    0.45   73.06    8.48
 2871.98 2150.77 1679.47    1.38    1.34    2.33    0.48   71.06    8.48
 2872.13 2150.87 1679.58     1.4    1.36    2.36    0.46   70.81    8.48
 2872.28 2150.98 1679.69    1.42    1.38    2.37    0.44   71.87    8.48
 2872.44 2151.09 1679.79    1.44    1.39    2.36    0.46   71.87    8.48
 2872.59  2151.2  1679.9    1.46    1.41    2.35    0.44   70.75    8.48
 2872.74 2151.31 1680.01    1.47    1.42    2.35    0.45   70.62    8.48
 2872.89 2151.42 1680.12    1.48    1.42    2.34    0.49   72.18    8.48
 2873.04 2151.52 1680.22    1.47    1.42    2.34    0.46      72    8.48
  2873.2 2151.63 1680.33    1.47    1.42    2.33    0.47   69.37    8.48
 2873.35 2151.74 1680.44    1.46    1.42    2.33    0.44   67.75    8.48
  2873.5 2151.85 1680.54    1.45    1.41    2.34    0.49    67.5    8.48
 2873.65 2151.96 1680.65    1.43     1.4    2.35    0.46   70.12    8.47
 2873.81 2152.06 1680.76    1.43    1.39    2.35     0.5   71.68    8.47
 2873.96 2152.17 1680.87    1.42    1.38    2.34    0.48   72.93    8.47
 2874.11 2152.28 1680.97    1.42    1.38    2.35    0.49   73.56    8.46
 2874.26 2152.39 1681.08    1.42    1.37    2.35    0.48   73.25    8.45
 2874.42  2152.5 1681.19    1.42    1.37    2.34    0.47   72.06    8.46
 2874.57 2152.61 1681.29    1.42    1.37    2.32    0.43   70.75    8.45
 2874.72 2152.71  1681.4    1.42    1.37    2.31     0.5   71.56    8.47
 2874.87 2152.82 1681.51    1.42    1.36    2.31    0.43   70.75    8.46
 2875.03 2152.93 1681.62    1.41    1.36    2.33    0.46   66.93    8.47
 2875.18 2153.04 1681.72    1.41    1.36    2.33    0.47      67    8.48
 2875.33 2153.15 1681.83     1.4    1.36    2.33    0.44   69.63    8.48
 2875.48 2153.26 1681.94    1.41    1.36    2.32    0.44      73    8.49
 2875.64 2153.36 1682.05    1.41    1.37    2.32    0.44   73.31    8.48
 2875.79 2153.47 1682.15    1.42    1.38    2.33    0.46   72.31    8.48
 2875.94 2153.58 1682.26    1.43    1.39    2.33    0.47   71.25    8.46
 2876.09 2153.69 1682.37    1.44     1.4    2.34    0.47   67.56    8.47
 2876.25  2153.8 1682.47    1.45    1.41    2.34    0.45   67.56    8.48
  2876.4 2153.91 1682.58    1.46    1.42    2.34    0.44   69.43    8.47
 2876.55 2154.01 1682.69    1.47    1.42    2.35    0.45   74.31    8.47
  2876.7 2154.12  1682.8    1.47    1.43    2.36    0.49   72.31    8.47
 2876.85 2154.23  1682.9    1.47    1.42    2.37    0.44   70.75    8.46
 2877.01 2154.34 1683.01    1.46    1.42    2.37    0.45   69.56    8.44
 2877.16 2154.45 1683.12    1.44    1.41    2.36    0.45   74.12    8.46
 2877.31 2154.56 1683.22    1.43    1.39    2.37    0.47      78    8.47
 2877.46 2154.66 1683.33    1.41    1.38    2.37    0.49   78.06    8.48
 2877.62 2154.77 1683.44    1.39    1.36    2.38    0.45   74.06    8.48
 2877.77 2154.88 1683.55    1.38    1.34    2.37    0.45   72.25     8.5
 2877.92 2154.99 1683.65    1.37    1.33    2.37    0.45   74.13     8.5
 2878.07  2155.1 1683.76    1.36    1.32    2.36    0.44   78.37     8.5
 2878.23 2155.21 1683.87    1.35     1.3    2.37     0.5    80.8     8.5
 2878.38 2155.31 1683.98    1.34     1.3    2.37     0.5   78.12     8.5
 2878.53 2155.42 1684.08    1.34    1.29    2.38    0.46   77.93    8.51
 2878.68 2155.53 1684.19    1.34    1.29    2.38    0.47    74.5    8.51
 2878.84 2155.64  1684.3    1.34    1.29    2.38    0.48   75.37     8.5
 2878.99 2155.75  1684.4    1.34    1.29    2.36    0.49    72.5    8.52
 2879.14 2155.85 1684.51    1.34    1.29    2.36    0.46   75.37    8.52
 2879.29 2155.96 1684.62    1.34    1.29    2.35    0.48   73.43    8.52
 2879.45 2156.07 1684.73    1.34    1.29    2.35    0.47   73.93    8.52
  2879.6 2156.18 1684.83    1.35    1.29    2.34    0.45   72.93    8.52
 2879.75 2156.29 1684.94    1.35     1.3    2.33    0.48   75.62    8.53
  2879.9  2156.4 1685.05    1.36    1.31    2.34    0.49   75.12    8.52
 2880.06  2156.5 1685.15    1.37    1.32    2.35    0.44   74.06     8.5
 2880.21 2156.61 1685.26    1.37    1.32    2.36    0.44   72.75    8.52
 2880.36 2156.72 1685.37    1.38    1.33    2.36    0.45   75.31    8.52
 2880.51 2156.83 1685.48    1.38    1.34    2.36    0.45      74    8.52
