# LAS format log file from PETREL
# Project units are specified as depth units
#==================================================================
~Version information
VERS.   2.0:
WRAP.   NO:
#==================================================================
~Well
STRT .m           1170.74 :
STOP .m           2999.99 :
STEP .m        0.15240000 :
NULL .        -999.250000 :
COMP.                     : COMPANY
WELL.           WELLB-2   : WELL
FLD.                      : FIELD
LOC.                      : LOCATION
SRVC.                     : SERVICE COMPANY
DATE.  Wednesday, March 31 2010 12:32:42   : DATE
PROV.                     : PROVINCE
UWI.                      : UNIQUE WELL ID
API.                      : API NUMBER
#==================================================================
~Curve
DEPT    .m                : DEPTH
TVD     .m                : TRUE VERTICAL DEPTH
HRZDISP .m                : HORIZONTAL DISPLACEMENT
ILM .ohm.m                : ILM
ILD .ohm.m                : ILD
RHOB .g/cm3               : RHOB
NPHI .m3/m3               : NPHI
GR .gAPI                  : GR
CALI .in                  : CALI
~Parameter
#==================================================================
#  DEPT              TVD         HRZDISP       ILM          ILD           RHOB         NPHI           GR     CALI
~Ascii
# ...
 2981.25 2230.71 1755.37    1.27    1.16    2.33    0.49   97.52 -999.25
  2981.4 2230.82 1755.46    1.27    1.16    2.36    0.45   99.23 -999.25
 2981.55 2230.94 1755.55    1.27    1.16    2.39    0.43   93.68 -999.25
 2981.71 2231.05 1755.64    1.27    1.16    2.36    0.47   95.88 -999.25
 2981.86 2231.17 1755.73    1.27    1.16    2.39    0.47   92.86 -999.25
 2982.01 2231.28 1755.82    1.27    1.16    2.35    0.44   97.43 -999.25
 2982.16 2231.39 1755.91    1.27    1.16    2.38    0.47   90.79 -999.25
 2982.32 2231.51    1756    1.27    1.16    2.39    0.47   99.07 -999.25
 2982.47 2231.62 1756.09    1.27    1.16    2.35    0.48   92.16 -999.25
 2982.62 2231.74 1756.18    1.27    1.16     2.4    0.47   90.44 -999.25
 2982.77 2231.85 1756.27    1.27    1.16    2.35     0.5   94.73 -999.25
 2982.93 2231.96 1756.36    1.27    1.16    2.33    0.49   96.31 -999.25
 2983.08 2232.08 1756.45    1.27    1.16    2.39    0.47   91.69 -999.25
 2983.23 2232.19 1756.54    1.27    1.16    2.39    0.47   91.53 -999.25
 2983.38 2232.31 1756.63 -999.25 -999.25    2.35    0.43   97.61 -999.25
 2983.53 2232.42 1756.72 -999.25 -999.25     2.4    0.49   94.22 -999.25
 2983.69 2232.53 1756.81 -999.25 -999.25    2.36    0.45   99.72 -999.25
 2983.84 2232.65  1756.9 -999.25 -999.25    2.33    0.48    97.4 -999.25
 2983.99 2232.76 1756.99 -999.25 -999.25    2.38    0.49   95.12 -999.25
 2984.14 2232.88 1757.08 -999.25 -999.25    2.36    0.49   92.11 -999.25
  2984.3 2232.99 1757.17 -999.25 -999.25    2.36    0.44      93 -999.25
 2984.45  2233.1 1757.26 -999.25 -999.25     2.4    0.49   90.17 -999.25
  2984.6 2233.22 1757.35 -999.25 -999.25    2.34    0.47   95.39 -999.25
 2984.75 2233.33 1757.44 -999.25 -999.25    2.38    0.49   92.25 -999.25
 2984.91 2233.45 1757.53 -999.25 -999.25    2.32    0.46   93.93 -999.25
 2985.06 2233.56 1757.62 -999.25 -999.25    2.37    0.46   93.18 -999.25
 2985.21 2233.67 1757.71 -999.25 -999.25    2.38    0.46   93.61 -999.25
 2985.36 2233.79  1757.8 -999.25 -999.25    2.37    0.44   96.53 -999.25
 2985.52  2233.9 1757.89 -999.25 -999.25    2.32    0.48   97.58 -999.25
 2985.67 2234.02 1757.97 -999.25 -999.25    2.35    0.46   95.33 -999.25
 2985.82 2234.13 1758.06 -999.25 -999.25    2.37    0.47   98.43 -999.25
 2985.97 2234.24 1758.15 -999.25 -999.25    2.35    0.45   97.28 -999.25
 2986.13 2234.36 1758.24 -999.25 -999.25    2.39    0.46   91.12 -999.25
 2986.28 2234.47 1758.33 -999.25 -999.25     2.4    0.48   95.78 -999.25
 2986.43 2234.59 1758.42 -999.25 -999.25    2.39    0.44   91.13 -999.25
 2986.58  2234.7 1758.51 -999.25 -999.25    2.37    0.48   91.91 -999.25
 2986.74 2234.81  1758.6 -999.25 -999.25    2.32    0.49   98.99 -999.25
 2986.89 2234.93 1758.69 -999.25 -999.25    2.36    0.46   94.24 -999.25
 2987.04 2235.04 1758.78 -999.25 -999.25    2.39    0.49   91.15 -999.25
 2987.19 2235.16 1758.87 -999.25 -999.25    2.35    0.46   96.57 -999.25
 2987.34 2235.27 1758.96 -999.25 -999.25    2.34    0.45   98.03 -999.25
  2987.5 2235.38 1759.05 -999.25 -999.25    2.36    0.46   93.27 -999.25
 2987.65  2235.5 1759.14 -999.25 -999.25    2.36    0.49   99.13 -999.25
  2987.8 2235.61 1759.23 -999.25 -999.25    2.38    0.44   92.05 -999.25
 2987.95 2235.73 1759.32 -999.25 -999.25     2.3    0.46   98.84 -999.25
 2988.11 2235.84 1759.41 -999.25 -999.25    2.35    0.47   93.15 -999.25
 2988.26 2235.95  1759.5 -999.25 -999.25    2.35    0.46   92.21 -999.25
 2988.41 2236.07 1759.59 -999.25 -999.25    2.34    0.46   91.38 -999.25
 2988.56 2236.18 1759.68 -999.25 -999.25    2.34    0.45   98.94 -999.25
 2988.72  2236.3 1759.77 -999.25 -999.25    2.35    0.49   96.33 -999.25
 2988.87 2236.41 1759.86 -999.25 -999.25    2.33    0.49   96.69 -999.25
 2989.02 2236.53 1759.95 -999.25 -999.25    2.31    0.46   99.91 -999.25
 2989.17 2236.64 1760.04 -999.25 -999.25    2.32    0.43   91.65 -999.25
 2989.33 2236.75 1760.13 -999.25 -999.25    2.31    0.49      98 -999.25
 2989.48 2236.87 1760.22 -999.25 -999.25    2.35    0.44      90 -999.25
 2989.63 2236.98 1760.31 -999.25 -999.25    2.32    0.46   99.66 -999.25
 2989.78  2237.1  1760.4 -999.25 -999.25    2.37    0.47   98.45 -999.25
 2989.94 2237.21 1760.49 -999.25 -999.25     2.3    0.46   92.94 -999.25
 2990.09 2237.32 1760.58 -999.25 -999.25    2.35    0.48   98.01 -999.25
 2990.24 2237.44 1760.67 -999.25 -999.25    2.36    0.49   98.14 -999.25
 2990.39 2237.55 1760.76 -999.25 -999.25    2.31    0.45   91.84 -999.25
 2990.55 2237.67 1760.85 -999.25 -999.25    2.33    0.48   95.14 -999.25
  2990.7 2237.78 1760.94 -999.25 -999.25    2.34    0.43   95.12 -999.25
 2990.85 2237.89 1761.03 -999.25 -999.25    2.34    0.45   91.68 -999.25
    2991 2238.01 1761.12 -999.25 -999.25    2.35    0.46   95.02 -999.25
 2991.15 2238.12 1761.21 -999.25 -999.25    2.39    0.46    94.6 -999.25
 2991.31 2238.24 1761.29 -999.25 -999.25    2.38    0.48   97.82 -999.25
 2991.46 2238.35 1761.38 -999.25 -999.25    2.36    0.49   94.87 -999.25
 2991.61 2238.46 1761.47 -999.25 -999.25    2.35    0.49   91.57 -999.25
 2991.76 2238.58 1761.56 -999.25 -999.25    2.38    0.47   99.67 -999.25
 2991.92 2238.69 1761.65 -999.25 -999.25    2.37    0.43    93.1 -999.25
 2992.07 2238.81 1761.74 -999.25 -999.25    2.37    0.44   90.13 -999.25
 2992.22 2238.92 1761.83 -999.25 -999.25    2.35    0.48   98.82 -999.25
 2992.37 2239.03 1761.92 -999.25 -999.25    2.31    0.43   98.75 -999.25
 2992.53 2239.15 1762.01 -999.25 -999.25    2.35    0.48   90.85 -999.25
 2992.68 2239.26  1762.1 -999.25 -999.25    2.31    0.49   96.53 -999.25
 2992.83 2239.38 1762.19 -999.25 -999.25    2.32    0.46   92.86 -999.25
 2992.98 2239.49 1762.28 -999.25 -999.25    2.39    0.47   90.33 -999.25
 2993.14  2239.6 1762.37 -999.25 -999.25    2.36    0.48   92.38 -999.25
 2993.29 2239.72 1762.46 -999.25 -999.25    2.34    0.48   95.91 -999.25
 2993.44 2239.83 1762.55 -999.25 -999.25    2.35    0.45    98.4 -999.25
 2993.59 2239.95 1762.64 -999.25 -999.25    2.32    0.45   97.36 -999.25
 2993.75 2240.06 1762.73 -999.25 -999.25     2.4    0.45   95.25 -999.25
  2993.9 2240.17 1762.82 -999.25 -999.25    2.39    0.43   91.28 -999.25
 2994.05 2240.29 1762.91 -999.25 -999.25    2.38    0.49   91.51 -999.25
  2994.2  2240.4    1763 -999.25 -999.25    2.37    0.49   97.17 -999.25
 2994.36 2240.52 1763.09 -999.25 -999.25    2.32    0.46   94.67 -999.25
 2994.51 2240.63 1763.18 -999.25 -999.25    2.39    0.47   99.97 -999.25
 2994.66 2240.74 1763.27 -999.25 -999.25     2.3    0.48   96.49 -999.25
 2994.81 2240.86 1763.36 -999.25 -999.25    2.36    0.43   94.22 -999.25
 2994.96 2240.97 1763.45 -999.25 -999.25    2.39    0.48   97.66 -999.25
 2995.12 2241.09 1763.54 -999.25 -999.25    2.33    0.46   98.26 -999.25
 2995.27  2241.2 1763.63 -999.25 -999.25    2.34    0.48   90.09 -999.25
 2995.42 2241.31 1763.72 -999.25 -999.25    2.33    0.48   90.75 -999.25
 2995.57 2241.43 1763.81 -999.25 -999.25    2.35    0.46   93.29 -999.25
 2995.73 2241.54  1763.9 -999.25 -999.25    2.33    0.43   93.28 -999.25
 2995.88 2241.66 1763.99 -999.25 -999.25    2.38    0.49   98.27 -999.25
 2996.03 2241.77 1764.08 -999.25 -999.25    2.37    0.45   96.99 -999.25
 2996.18 2241.88 1764.17 -999.25 -999.25    2.39    0.47   92.79 -999.25
 2996.34    2242 1764.26 -999.25 -999.25     2.4    0.45   90.46 -999.25
 2996.49 2242.11 1764.35 -999.25 -999.25    2.35    0.44   91.22 -999.25
 2996.64 2242.23 1764.44 -999.25 -999.25    2.36    0.45   98.38 -999.25
 2996.79 2242.34 1764.53 -999.25 -999.25    2.31    0.45   93.07 -999.25
 2996.95 2242.45 1764.62 -999.25 -999.25    2.36     0.5   99.85 -999.25
  2997.1 2242.57  1764.7 -999.25 -999.25    2.35    0.47    92.7 -999.25
 2997.25 2242.68 1764.79 -999.25 -999.25    2.35    0.47   99.87 -999.25
  2997.4  2242.8 1764.88 -999.25 -999.25     2.4    0.46      91 -999.25
 2997.56 2242.91 1764.97 -999.25 -999.25    2.38    0.48   92.02 -999.25
 2997.71 2243.02 1765.06 -999.25 -999.25    2.35    0.44   98.63 -999.25
 2997.86 2243.14 1765.15 -999.25 -999.25    2.38    0.47   99.12 -999.25
