# LAS format log file from PETREL
# Project units are specified as depth units
#==================================================================
~Version information
VERS.   2.0:
WRAP.   NO:
#==================================================================
~Well
STRT .m           1170.74 :
STOP .m           2999.99 :
STEP .m        0.15240000 :
NULL .        -999.250000 :
COMP.                     : COMPANY
WELL.           WELLB-2   : WELL
FLD.                      : FIELD
LOC.                      : LOCATION
SRVC.                     : SERVICE COMPANY
DATE.  Wednesday, March 31 2010 12:32:42   : DATE
PROV.                     : PROVINCE
UWI.                      : UNIQUE WELL ID
API.                      : API NUMBER
#==================================================================
~Curve
DEPT    .m                : DEPTH
TVD     .m                : TRUE VERTICAL DEPTH
HRZDISP .m                : HORIZONTAL DISPLACEMENT
ILM .ohm.m                : ILM
ILD .ohm.m                : ILD
RHOB .g/cm3               : RHOB
NPHI .m3/m3               : NPHI
GR .gAPI                  : GR
CALI .in                  : CALI
~Parameter
#==================================================================
#  DEPT              TVD         HRZDISP       ILM          ILD           RHOB         NPHI           GR     CALI
~Ascii
# ...
 1774.24 1440.01  843.72    1.31    1.11    2.59    0.39   50.97 -999.25
 1774.39 1440.11  843.84     1.3    1.08    2.51    0.38   46.09 -999.25
 1774.55  1440.2  843.95    1.28    1.06    2.55     0.4   44.69 -999.25
  1774.7  1440.3  844.07    1.25    1.04    2.57     0.4   45.28 -999.25
 1774.85  1440.4  844.19    1.22    1.01    2.56    0.38   45.91 -999.25
    1775 1440.49  844.31    1.24    1.07    2.52    0.39   42.37 -999.25
 1775.16 1440.59  844.43    1.26     1.2    2.58    0.38   35.91 -999.25
 1775.31 1440.69  844.54    1.41    1.31    2.59     0.4   31.63 -999.25
 1775.46 1440.78  844.66    1.65    1.49    2.58     0.4   33.66 -999.25
 1775.61 1440.88  844.78    2.11    2.01    2.56    0.41   45.63 -999.25
 1775.76 1440.98   844.9    3.41    3.36     2.6    0.38   55.76 -999.25
 1775.92 1441.07  845.02    6.35    4.04     2.5    0.41   63.81 -999.25
 1776.07 1441.17  845.13     6.6    4.06    2.59    0.39   62.63 -999.25
 1776.22 1441.27  845.25    4.68    4.07    2.55    0.39   56.28 -999.25
 1776.37 1441.36  845.37    4.48    4.38    2.57    0.39    49.9 -999.25
 1776.53 1441.46  845.49    4.73    5.27    2.56    0.41   42.09 -999.25
 1776.68 1441.56   845.6    4.85    4.58    2.55     0.4   41.59 -999.25
 1776.83 1441.65  845.72    3.62    4.36    2.55     0.4   38.13 -999.25
 1776.98 1441.75  845.84    3.25    4.31    2.54    0.38   33.81 -999.25
 1777.14 1441.84  845.96    3.25    4.22    2.55    0.38   30.45 -999.25
 1777.29 1441.94  846.08    3.31    4.16    2.57    0.41      31 -999.25
 1777.44 1442.04  846.19    3.36    4.14    2.54    0.39   35.72 -999.25
 1777.59 1442.13  846.31    3.54    3.69    2.51     0.4   41.19 -999.25
 1777.75 1442.23  846.43    2.87    2.79    2.51    0.41   45.56 -999.25
  1777.9 1442.33  846.55    2.13    2.25    2.51    0.38    45.5 -999.25
 1778.05 1442.42  846.67    1.93    1.83     2.6     0.4   42.56 -999.25
  1778.2 1442.52  846.78    1.84     1.5    2.52     0.4   42.91 -999.25
 1778.36 1442.62   846.9    1.73    1.24    2.51     0.4   42.09 -999.25
 1778.51 1442.71  847.02    1.52    1.06    2.55    0.38   40.81 -999.25
 1778.66 1442.81  847.14    1.26    1.02    2.59     0.4      37 -999.25
 1778.81 1442.91  847.26    1.14    1.02    2.59    0.39   35.31 -999.25
 1778.97    1443  847.37    1.12    1.02    2.56    0.39   31.48 -999.25
 1779.12  1443.1  847.49    1.13    1.04    2.52     0.4   29.44 -999.25
 1779.27  1443.2  847.61    1.17    1.07    2.58    0.38   28.13 -999.25
 1779.42 1443.29  847.73    1.24    1.09    2.51     0.4   31.91 -999.25
 1779.57 1443.39  847.85    1.28    1.09    2.56     0.4   36.53 -999.25
 1779.73 1443.49  847.96    1.22    1.07    2.52     0.4   42.97 -999.25
 1779.88 1443.58  848.08    1.16    1.04    2.52    0.39   42.53 -999.25
 1780.03 1443.68   848.2    1.13    1.03    2.54     0.4   38.66 -999.25
 1780.18 1443.77  848.32    1.12    0.97    2.58    0.41   34.81 -999.25
 1780.34 1443.87  848.44     1.1    0.92    2.53    0.39   36.59 -999.25
 1780.49 1443.97  848.55    1.07     0.9     2.6     0.4   36.63 -999.25
 1780.64 1444.06  848.67    1.06    0.88    2.59     0.4   42.88 -999.25
 1780.79 1444.16  848.79    1.04    0.87    2.52     0.4   43.81 -999.25
 1780.95 1444.26  848.91    1.03    0.88    2.51    0.39    45.5 -999.25
  1781.1 1444.35  849.03    1.04     0.9    2.55    0.39   45.72 -999.25
 1781.25 1444.45  849.14    1.07     0.9    2.56    0.41   47.66 -999.25
  1781.4 1444.55  849.26    1.08    0.88    2.59    0.39   48.91 -999.25
 1781.56 1444.64  849.38    1.08    0.86    2.59    0.39    47.5 -999.25
 1781.71 1444.74   849.5    1.09    0.84    2.51    0.41   48.22 -999.25
 1781.86 1444.84  849.61    1.07    0.83    2.58    0.39   51.22 -999.25
 1782.01 1444.93  849.73    1.01    0.83    2.55    0.39   49.69 -999.25
 1782.17 1445.03  849.85    1.01    0.81    2.51    0.38   43.06 -999.25
 1782.32 1445.13  849.97    0.99    0.84    2.52    0.41   37.25 -999.25
 1782.47 1445.22  850.09    0.99    0.82    2.59    0.39   39.44 -999.25
 1782.62 1445.32   850.2    1.03    0.84     2.6    0.41   43.31 -999.25
 1782.78 1445.42  850.32    1.01    0.82    2.55    0.38   44.56 -999.25
 1782.93 1445.51  850.44    0.99     0.8    2.55    0.41   44.47 -999.25
 1783.08 1445.61  850.56    0.98    0.79    2.52    0.39   41.75 -999.25
 1783.23 1445.71  850.68    0.96    0.82    2.55    0.39   45.44 -999.25
 1783.38  1445.8  850.79    0.91    0.86    2.59    0.41   38.66 -999.25
 1783.54  1445.9  850.91       1    0.88    2.54    0.41   36.62 -999.25
 1783.69 1445.99  851.03     1.1    0.88    2.55     0.4   31.72 -999.25
 1783.84 1446.09  851.15    1.06    0.87    2.57    0.41   34.22 -999.25
 1783.99 1446.19  851.27    1.04    0.86    2.57     0.4   39.88 -999.25
 1784.15 1446.28  851.38    0.98    0.87     2.6    0.41   42.38 -999.25
  1784.3 1446.38   851.5    0.93    0.86    2.58     0.4   43.06 -999.25
 1784.45 1446.48  851.62    0.89    0.81    2.58     0.4   39.81 -999.25
  1784.6 1446.57  851.74    0.85    0.74    2.55    0.38   35.91 -999.25
 1784.76 1446.67  851.86    0.83    0.74    2.59     0.4   33.84 -999.25
 1784.91 1446.77  851.97    0.86    0.78    2.56    0.41    33.6 -999.25
 1785.06 1446.86  852.09    0.93     0.8    2.53    0.38   36.22 -999.25
 1785.21 1446.96  852.21    0.99    0.83    2.54    0.41   38.91 -999.25
 1785.37 1447.06  852.33    1.03    0.88     2.5    0.39   36.78 -999.25
 1785.52 1447.15  852.45    1.07    0.92     2.5    0.41   38.81 -999.25
 1785.67 1447.25  852.56     1.1    0.92    2.56     0.4   37.41 -999.25
 1785.82 1447.35  852.68    1.06     0.9    2.52     0.4   39.06 -999.25
 1785.98 1447.44   852.8    0.99    0.88    2.57    0.41   39.06 -999.25
 1786.13 1447.54  852.92    0.98    0.82    2.51     0.4   43.82 -999.25
 1786.28 1447.64  853.04    0.96    0.77    2.54     0.4   48.56 -999.25
 1786.43 1447.73  853.15    0.92    0.75     2.5     0.4   49.97 -999.25
 1786.59 1447.83  853.27     0.9    0.76     2.6    0.41   43.72 -999.25
 1786.74 1447.93  853.39    0.91    0.77    2.55     0.4   42.91 -999.25
 1786.89 1448.02  853.51    0.91    0.77    2.55    0.39   42.19 -999.25
 1787.04 1448.12  853.63    0.92    0.78    2.59    0.38   44.81 -999.25
 1787.19 1448.21  853.74    0.95     0.8    2.53    0.39   45.13 -999.25
 1787.35 1448.31  853.86    0.98    0.82    2.54    0.39   41.09 -999.25
  1787.5 1448.41  853.98       1    0.85    2.54    0.39   44.65 -999.25
 1787.65  1448.5   854.1    1.03    0.88    2.55    0.39      40 -999.25
  1787.8  1448.6  854.21    1.08    0.92    2.54     0.4   41.38 -999.25
 1787.96  1448.7  854.33    1.13    0.95    2.51     0.4   35.06 -999.25
 1788.11 1448.79  854.45    1.16    0.96    2.56     0.4    38.5 -999.25
 1788.26 1448.89  854.57    1.16    0.99    2.53    0.38   37.44 -999.25
 1788.41 1448.99  854.69    1.15    0.97    2.59     0.4   41.28 -999.25
 1788.57 1449.08   854.8    1.15    0.95    2.52    0.39   40.97 -999.25
 1788.72 1449.18  854.92    1.15    0.94    2.52    0.39   43.97 -999.25
 1788.87 1449.28  855.04    1.11    0.94    2.53    0.39   43.53 -999.25
 1789.02 1449.37  855.16    1.09    0.95    2.59     0.4   44.06 -999.25
 1789.18 1449.47  855.28    1.15    0.94    2.59     0.4   45.84 -999.25
 1789.33  1449.6  855.37    1.15    0.92    2.57    0.39   43.56 -999.25
 1789.48  1449.7  855.48    1.13    0.92    2.58     0.4   42.47 -999.25
 1789.63 1449.79   855.6    1.14    0.94    2.53     0.4   41.29 -999.25
 1789.79 1449.89  855.72    1.15    0.95    2.54     0.4   46.16 -999.25
 1789.94 1449.99  855.84    1.16    0.93    2.55    0.38   47.06 -999.25
 1790.09 1450.08  855.95    1.17    0.94    2.59    0.38   45.28 -999.25
 1790.24 1450.18  856.07    1.15    0.96    2.56    0.41   41.69 -999.25
  1790.4 1450.28  856.19    1.17       1    2.57     0.4   41.25 -999.25
 1790.55 1450.37  856.31    1.24    1.08    2.57    0.41   43.66 -999.25
  1790.7 1450.47  856.42    1.34    1.16    2.56     0.4   45.25 -999.25
 1790.85 1450.57  856.54    1.53    1.21    2.59    0.39   47.87 -999.25
