# LAS format log file from PETREL
# Project units are specified as depth units
#==================================================================
~Version information
VERS.   2.0:
WRAP.   NO:
#==================================================================
~Well
STRT .m           1170.74 :
STOP .m           2999.99 :
STEP .m        0.15240000 :
NULL .        -999.250000 :
COMP.                     : COMPANY
WELL.           WELLB-2   : WELL
FLD.                      : FIELD
LOC.                      : LOCATION
SRVC.                     : SERVICE COMPANY
DATE.  Wednesday, March 31 2010 12:32:42   : DATE
PROV.                     : PROVINCE
UWI.                      : UNIQUE WELL ID
API.                      : API NUMBER
#==================================================================
~Curve
DEPT    .m                : DEPTH
TVD     .m                : TRUE VERTICAL DEPTH
HRZDISP .m                : HORIZONTAL DISPLACEMENT
ILM .ohm.m                : ILM
ILD .ohm.m                : ILD
RHOB .g/cm3               : RHOB
NPHI .m3/m3               : NPHI
GR .gAPI                  : GR
CALI .in                  : CALI
~Parameter
#==================================================================
#  DEPT              TVD         HRZDISP       ILM          ILD           RHOB         NPHI           GR     CALI
~Ascii
# ...
 2143.05 1669.41 1132.48    1.45    1.99    2.57    0.41   70.25 -999.25
  2143.2  1669.5  1132.6    1.47    1.81    2.58    0.39   71.75 -999.25
 2143.35  1669.6 1132.72    2.04    1.87    2.52    0.39   69.61 -999.25
 2143.51 1669.69 1132.84     1.5    2.02    2.51    0.38   67.77 -999.25
 2143.66 1669.78 1132.95    1.54    1.37    2.58     0.4   67.41 -999.25
 2143.81 1669.88 1133.07    1.38    1.96    2.53    0.41   70.13 -999.25
 2143.96 1669.97 1133.19    1.54    1.41     2.5    0.41   65.21 -999.25
 2144.12 1670.07 1133.31     2.4    2.07    2.53    0.41   65.97 -999.25
 2144.27 1670.16 1133.43    1.61    1.64    2.55     0.4   69.73 -999.25
 2144.42 1670.26 1133.55    1.49    1.48    2.57     0.4   67.43 -999.25
 2144.57 1670.35 1133.67    1.38     1.4    2.55    0.39   68.13 -999.25
 2144.73 1670.44 1133.79    1.62    1.91     2.5    0.39    68.2 -999.25
 2144.88 1670.54 1133.91    1.71    1.25    2.52    0.41   66.12 -999.25
 2145.03 1670.63 1134.03     1.1    1.43    2.58     0.4   65.87 -999.25
 2145.18 1670.73 1134.15    1.61    1.46    2.56     0.4   66.38 -999.25
 2145.33 1670.82 1134.27    2.16    1.11    2.59     0.4    66.2 -999.25
 2145.49 1670.92 1134.39    1.74     2.2    2.52    0.39   66.04 -999.25
 2145.64 1671.01 1134.51    1.49    1.39    2.57    0.39   71.04 -999.25
 2145.79  1671.1 1134.63    1.49    1.64    2.55     0.4    71.9 -999.25
 2145.94  1671.2 1134.75    2.16    2.33    2.55    0.41   68.59 -999.25
  2146.1 1671.29 1134.87    1.45    1.39    2.58    0.38   70.47 -999.25
 2146.25 1671.39 1134.99    1.54    1.32    2.59     0.4   69.85 -999.25
  2146.4 1671.48 1135.11    1.49     1.5    2.54    0.41   69.22 -999.25
 2146.55 1671.58 1135.23    1.42     1.5    2.51     0.4   71.17 -999.25
 2146.71 1671.67 1135.35    1.38    1.43    2.59     0.4   68.95 -999.25
 2146.86 1671.76 1135.47     1.4    1.43    2.58     0.4   68.22 -999.25
 2147.01 1671.86 1135.59    2.05     1.7    2.57     0.4   68.16 -999.25
 2147.16 1671.95 1135.71    1.54    1.53    2.55    0.39    69.9 -999.25
 2147.32 1672.05 1135.83    1.54    2.48    2.59    0.39   68.35 -999.25
 2147.47 1672.14 1135.95    1.64    1.42    2.51     0.4   67.23 -999.25
 2147.62 1672.24 1136.07    1.25    1.47    2.59     0.4    66.1 -999.25
 2147.77 1672.33 1136.19    1.63    1.08    2.51    0.39   70.82 -999.25
 2147.93 1672.42 1136.31    1.26    1.54    2.57    0.41   66.73 -999.25
 2148.08 1672.52 1136.43    2.01    1.03    2.56    0.41   70.18 -999.25
 2148.23 1672.61 1136.55    1.51     1.6    2.58     0.4      66 -999.25
 2148.38 1672.71 1136.67    1.72    1.77    2.59     0.4    68.3 -999.25
 2148.54  1672.8 1136.79    1.74    1.51    2.57    0.39   71.36 -999.25
 2148.69  1672.9 1136.91    1.51    1.43    2.55     0.4   71.78 -999.25
 2148.84 1672.99 1137.03    1.85    1.67    2.57     0.4   69.24 -999.25
 2148.99 1673.08 1137.15    1.91    2.55    2.51     0.4   67.39 -999.25
 2149.14 1673.18 1137.26    1.54    1.38    2.57    0.41   71.51 -999.25
  2149.3 1673.27 1137.38    1.58    2.33    2.52    0.38   66.52 -999.25
 2149.45 1673.37  1137.5    1.32    1.22    2.54    0.41   70.66 -999.25
  2149.6 1673.46 1137.62    1.89     1.4    2.59    0.39   66.58 -999.25
 2149.75 1673.56 1137.74    2.29    1.35    2.58    0.39   71.87 -999.25
 2149.91 1673.65 1137.86    1.25    1.33    2.57    0.39   66.03 -999.25
 2150.06 1673.74 1137.98    1.44    1.58    2.55    0.39   71.75 -999.25
 2150.21 1673.84  1138.1    1.09    1.44     2.6    0.38   67.99 -999.25
 2150.36 1673.93 1138.22    1.69     1.7     2.5     0.4   67.95 -999.25
 2150.52 1674.03 1138.34    1.24    2.01    2.52    0.41   68.82 -999.25
 2150.67 1674.12 1138.46    1.82    1.83    2.57    0.39   67.17 -999.25
 2150.82 1674.22 1138.58    1.25    1.39    2.57     0.4   70.32 -999.25
 2150.97 1674.31  1138.7    1.57    1.57    2.54    0.41   65.75 -999.25
 2151.13 1674.41 1138.82    1.69    1.25    2.59    0.38   68.71 -999.25
 2151.28  1674.5 1138.94    1.09    1.62    2.59    0.39   71.27 -999.25
 2151.43 1674.59 1139.06    1.05    1.69    2.51    0.39   65.62 -999.25
 2151.58 1674.69 1139.18    1.42    1.36     2.5     0.4   71.64 -999.25
 2151.74 1674.78  1139.3       2     2.1    2.56    0.41   69.12 -999.25
 2151.89 1674.88 1139.42    1.23    1.92    2.51    0.38   69.63 -999.25
 2152.04 1674.97 1139.54    1.47    1.55    2.56    0.39   66.63 -999.25
 2152.19 1675.07 1139.66    1.49    1.56    2.55     0.4   70.25 -999.25
 2152.35 1675.16 1139.78    1.36    2.49    2.57    0.39   70.04 -999.25
  2152.5 1675.25  1139.9    2.41    1.45    2.56    0.39   67.43 -999.25
 2152.65 1675.35 1140.02     1.5    1.51    2.54    0.39   68.58 -999.25
  2152.8 1675.44 1140.14    1.63    2.14    2.56     0.4   70.25 -999.25
 2152.95 1675.54 1140.26     1.5    1.32    2.59     0.4   71.17 -999.25
 2153.11 1675.63 1140.38    1.48    1.48    2.56    0.38   65.84 -999.25
 2153.26 1675.73  1140.5    1.37    1.23    2.55    0.38   65.08 -999.25
 2153.41 1675.82 1140.62    1.89    1.37    2.57    0.39   66.01 -999.25
 2153.56 1675.91 1140.74    1.43    1.49    2.58    0.41    66.8 -999.25
 2153.72 1676.01 1140.86    1.59    1.83    2.52     0.4   68.53 -999.25
 2153.87  1676.1 1140.98    1.89    2.39    2.51    0.41   69.13 -999.25
 2154.02  1676.2  1141.1    1.45    1.43    2.58    0.41   68.38 -999.25
 2154.17 1676.29 1141.22    1.21    1.77    2.59    0.39   65.93 -999.25
 2154.33 1676.39 1141.34    1.25    1.33    2.54     0.4   70.94 -999.25
 2154.48 1676.48 1141.46     1.5    1.99    2.58     0.4   66.08 -999.25
 2154.63 1676.57 1141.57    1.67    1.29    2.59    0.38   69.61 -999.25
 2154.78 1676.67 1141.69     1.9    1.69     2.6    0.38   69.26 -999.25
 2154.94 1676.76 1141.81    1.33    1.36    2.59     0.4    66.7 -999.25
 2155.09 1676.86 1141.93    1.47    1.49    2.53    0.38    68.1 -999.25
 2155.24 1676.95 1142.05    1.22    1.76    2.53    0.41   67.98 -999.25
 2155.39 1677.05 1142.17    1.52    2.33     2.5    0.38   65.23 -999.25
 2155.55 1677.14 1142.29    1.34    1.48    2.52    0.39   70.11 -999.25
  2155.7 1677.23 1142.41    2.02    1.29    2.51    0.38   70.97 -999.25
 2155.85 1677.33 1142.53    1.71    1.87    2.54    0.38   68.69 -999.25
    2156 1677.42 1142.65    1.09     2.2    2.59     0.4    67.1 -999.25
 2156.16 1677.52 1142.77     1.5    1.23    2.57    0.38   71.44 -999.25
 2156.31 1677.61 1142.89    1.65    1.67    2.54    0.39   69.97 -999.25
 2156.46 1677.71 1143.01    1.43    1.52     2.6    0.38   69.98 -999.25
 2156.61  1677.8 1143.13    1.57    1.43    2.59     0.4   66.01 -999.25
 2156.76 1677.89 1143.25    1.43    2.49    2.52     0.4   66.27 -999.25
 2156.92 1677.99 1143.37    1.66    1.65    2.54     0.4   70.01 -999.25
 2157.07 1678.08 1143.49    2.35    1.21    2.53    0.39   67.11 -999.25
 2157.22 1678.18 1143.61     1.8    2.54     2.6    0.41   66.72 -999.25
 2157.37 1678.27 1143.73    1.56    1.96    2.57    0.38   65.87 -999.25
 2157.53 1678.37 1143.85    1.65    1.36    2.57    0.39   71.61 -999.25
 2157.68 1678.46 1143.97    1.49    1.36    2.52     0.4   70.71 -999.25
 2157.83 1678.55 1144.09    1.96    1.58    2.56    0.39   67.51 -999.25
 2157.98 1678.65 1144.21    1.39    1.64    2.54    0.39    67.4 -999.25
 2158.14 1678.74 1144.33    1.18    1.58    2.55     0.4   69.76 -999.25
 2158.29 1678.84 1144.45    1.35    1.52     2.5    0.39   66.64 -999.25
 2158.44 1678.93 1144.57    1.35     1.6    2.57     0.4   66.68 -999.25
 2158.59 1679.03 1144.69    1.08    1.16    2.58     0.4   65.31 -999.25
 2158.75 1679.12 1144.81    1.63    1.46     2.5     0.4   69.58 -999.25
  2158.9 1679.21 1144.93    1.91     1.6     2.5    0.39   65.88 -999.25
 2159.05 1679.31 1145.05    1.83     1.2    2.57     0.4   71.03 -999.25
  2159.2  1679.4 1145.17    1.66    1.46    2.58     0.4   68.57 -999.25
 2159.36  1679.5 1145.29    2.18    1.93    2.56    0.39   66.59 -999.25
 2159.51 1679.59 1145.41    1.62     2.6    2.53    0.38   69.36 -999.25
 2159.66 1679.69 1145.53    1.85    1.75    2.56    0.41   66.24 -999.25
