# LAS format log file from PETREL
# Project units are specified as depth units
#==================================================================
~Version information
VERS.   2.0:
WRAP.   NO:
#==================================================================
~Well
STRT .m           1170.74 :
STOP .m           2999.99 :
STEP .m        0.15240000 :
NULL .        -999.250000 :
COMP.                     : COMPANY
WELL.           WELLB-2   : WELL
FLD.                      : FIELD
LOC.                      : LOCATION
SRVC.                     : SERVICE COMPANY
DATE.  Wednesday, March 31 2010 12:32:42   : DATE
PROV.                     : PROVINCE
UWI.                      : UNIQUE WELL ID
API.                      : API NUMBER
#==================================================================
~Curve
DEPT    .m                : DEPTH
TVD     .m                : TRUE VERTICAL DEPTH
HRZDISP .m                : HORIZONTAL DISPLACEMENT
ILM .ohm.m                : ILM
ILD .ohm.m                : ILD
RHOB .g/cm3               : RHOB
NPHI .m3/m3               : NPHI
GR .gAPI                  : GR
CALI .in                  : CALI
~Parameter
#==================================================================
#  DEPT              TVD         HRZDISP       ILM          ILD           RHOB         NPHI           GR     CALI
~Ascii
# ...
 2495.09 1897.79 1400.35   10.13    8.25    2.06    0.41   44.31    8.52
 2495.25 1897.89 1400.46   14.44    12.5    2.11    0.38   43.28    8.53
  2495.4 1897.99 1400.58   17.26   15.17    2.13    0.39    40.9    8.53
 2495.55 1898.09  1400.7   17.59   15.51    2.15    0.39   42.93    8.53
  2495.7 1898.18 1400.82    16.4   14.47    2.12    0.38   45.76    8.55
 2495.85 1898.28 1400.93   14.62   12.69    2.08    0.39   50.94    8.58
 2496.01 1898.38 1401.05   13.12   11.19    2.06    0.41   53.78    8.59
 2496.16 1898.48 1401.17   11.82    9.89    2.05     0.4      58    8.59
 2496.31 1898.57 1401.28   10.22     8.5    2.07    0.42   56.43    8.59
 2496.46 1898.67  1401.4    8.38    7.21     2.1     0.4   58.21     8.6
 2496.62 1898.77 1401.52    6.84    6.23    2.14    0.41   56.09    8.61
 2496.77 1898.87 1401.63    5.83    5.57    2.18    0.41    55.9    8.63
 2496.92 1898.97 1401.75    5.17    5.11    2.21    0.44    54.5    8.66
 2497.07 1899.06 1401.87     4.8    4.84    2.22    0.47   55.25    8.67
 2497.23 1899.16 1401.99    4.68    4.78    2.22    0.45   56.21     8.7
 2497.38 1899.26  1402.1    4.79    4.88    2.21    0.45    57.4    8.71
 2497.53 1899.36 1402.22    5.24    5.11    2.19    0.42   59.18     8.7
 2497.68 1899.45 1402.34    5.97    5.38    2.16    0.44   57.75    8.71
 2497.84 1899.55 1402.45    6.43    5.61    2.15    0.43   52.03    8.73
 2497.99 1899.65 1402.57    6.49    5.78    2.17    0.45      49    8.74
 2498.14 1899.75 1402.69    6.33     5.8     2.2    0.46   49.07    8.75
 2498.29 1899.84  1402.8    5.92    5.62    2.21    0.44   53.93    8.79
 2498.45 1899.94 1402.92    5.29     5.1    2.23    0.41      54    8.82
  2498.6 1900.04 1403.04    4.57    4.32    2.26     0.4   53.87    8.84
 2498.75 1900.14 1403.15    3.84    3.49    2.29    0.41   55.18    8.84
  2498.9 1900.24 1403.27    3.14    2.77    2.29    0.42   60.53    8.86
 2499.06 1900.33 1403.39    2.52    2.25     2.3    0.44   66.56    8.86
 2499.21 1900.43 1403.51    2.05    1.93    2.32    0.46   73.43    8.88
 2499.36 1900.53 1403.62    1.77    1.73    2.33    0.47   78.75    8.91
 2499.51 1900.63 1403.74    1.62     1.6    2.34    0.46   84.37    8.91
 2499.66 1900.72 1403.86    1.56    1.55    2.33    0.45   86.93    8.91
 2499.82 1900.82 1403.97    1.55    1.56    2.32    0.45   89.92    8.89
 2499.97 1900.92 1404.09    1.64    1.63    2.32    0.45      87    8.88
 2500.12 1901.02 1404.21    1.96    1.85    2.29    0.47    77.5    8.87
 2500.27 1901.11 1404.32    2.51    2.22    2.21    0.46   62.62    8.75
 2500.43 1901.21 1404.44    3.29    2.72     2.1    0.43   54.06    8.59
 2500.58 1901.31 1404.56    4.54    3.48    2.02    0.42   49.12    8.58
 2500.73 1901.41 1404.67    6.54    4.93    1.99    0.43   50.03    8.58
 2500.88 1901.51 1404.79    9.68    8.16       2    0.46   47.65    8.57
 2501.04  1901.6 1404.91   15.01    14.4    2.01    0.47   49.75    8.56
 2501.19  1901.7 1405.03   23.33    22.3    2.01    0.45   48.88    8.55
 2501.34  1901.8 1405.14   33.02   27.73       2    0.42    53.4    8.57
 2501.49  1901.9 1405.26   40.75   29.29       2    0.41   51.59    8.56
 2501.65 1901.99 1405.38   43.93   28.79    2.02    0.43    52.9    8.55
  2501.8 1902.09 1405.49   44.21   28.48    2.04    0.46   48.03    8.55
 2501.95 1902.19 1405.61   43.93   27.89    2.04    0.47   49.46    8.56
  2502.1 1902.29 1405.73   42.93   26.12    2.03    0.45   48.71    8.55
 2502.26 1902.38 1405.84   40.86   24.35    2.01    0.44   50.15    8.55
 2502.41 1902.48 1405.96   36.89      23    1.99    0.45   49.59    8.59
 2502.56 1902.58 1406.08   31.78   21.71    1.99    0.44   49.03     8.6
 2502.71 1902.68  1406.2   27.76   20.31       2    0.45   49.96    8.59
 2502.87 1902.78 1406.31   25.54   18.82    2.04    0.44    49.9    8.62
 2503.02 1902.87 1406.43   23.96    17.6     2.1    0.48      51    8.64
 2503.17 1902.97 1406.55   22.31   16.79    2.14    0.48   49.37    8.64
 2503.32 1903.07 1406.66   20.87   16.14    2.13     0.5   49.09    8.66
 2503.47 1903.17 1406.78   19.48   15.24    2.08    0.47   48.84    8.67
 2503.63 1903.26  1406.9   17.71   14.07    2.05    0.46   47.78    8.67
 2503.78 1903.36 1407.01    15.6   12.92    2.05    0.44   46.84    8.69
 2503.93 1903.46 1407.13   13.62   11.91    2.07    0.45   47.06    8.72
 2504.08 1903.56 1407.25   11.84   10.92    2.09    0.44   50.03    8.73
 2504.24 1903.66 1407.36   10.21     9.8    2.11    0.41   50.78    8.75
 2504.39 1903.75 1407.48    8.84    8.52    2.13    0.41   51.65    8.75
 2504.54 1903.85  1407.6    7.66    7.22    2.16     0.4   51.59    8.78
 2504.69 1903.95 1407.72    6.57    6.07    2.16    0.44    53.9    8.83
 2504.85 1904.05 1407.83    5.59    5.09    2.17    0.44   57.34    8.87
    2505 1904.14 1407.95    4.69    4.32    2.17    0.46   59.03    8.88
 2505.15 1904.24 1408.07    3.84    3.71     2.2    0.45   58.62    8.91
  2505.3 1904.34 1408.18    3.19     3.3    2.21    0.48   59.46    8.92
 2505.46 1904.44  1408.3    2.83    3.06    2.23    0.48   62.96    8.94
 2505.61 1904.53 1408.42    2.71    2.88    2.24    0.48   66.93    8.95
 2505.76 1904.63 1408.53    2.69    2.63    2.26    0.47   61.56    8.95
 2505.91 1904.73 1408.65    2.63    2.37    2.26    0.43   56.34    8.91
 2506.07 1904.83 1408.77    2.43    2.14    2.26    0.42   52.82    8.96
 2506.22 1904.93 1408.89    2.14    1.99    2.27     0.4   58.29    8.97
 2506.37 1905.02    1409    1.88    1.88    2.29    0.43   63.16    8.95
 2506.52 1905.12 1409.12    1.71    1.77     2.3    0.43   69.05    8.98
 2506.68 1905.22 1409.24    1.63    1.66     2.3    0.44   70.87    9.01
 2506.83 1905.32 1409.35    1.58    1.56    2.29    0.46   75.06    9.02
 2506.98 1905.41 1409.47    1.56     1.5    2.28    0.48   75.06    9.02
 2507.13 1905.51 1409.59    1.56    1.48    2.27    0.49      76    9.03
 2507.28 1905.61  1409.7    1.58    1.51    2.27     0.5   72.75    9.02
 2507.44 1905.71 1409.82    1.64     1.6    2.28    0.48   71.87    9.02
 2507.59  1905.8 1409.94    1.77    1.72    2.28    0.49   68.61    9.02
 2507.74  1905.9 1410.05    1.95    1.89    2.28    0.44   64.36       9
 2507.89    1906 1410.17    2.23     2.1    2.35    0.46   57.35    8.98
 2508.05  1906.1 1410.29    2.57    2.35    2.45    0.44    56.4    8.99
  2508.2  1906.2 1410.41    2.91    2.65    2.45    0.47   55.56    8.96
 2508.35 1906.29 1410.52    3.17    2.92    2.34    0.45    56.5    8.96
  2508.5 1906.39 1410.64    3.26    3.02    2.27    0.45   55.03    8.98
 2508.66 1906.49 1410.76    3.17    2.97    2.25    0.42   57.71    8.94
 2508.81 1906.59 1410.87     2.9    2.79    2.25    0.42   58.29    8.92
 2508.96 1906.68 1410.99    2.55    2.53    2.24    0.44   66.19    8.96
 2509.11 1906.78 1411.11    2.25    2.29    2.25    0.47   72.69    8.98
 2509.27 1906.88 1411.22    2.03    2.09    2.26    0.48   79.25       9
 2509.42 1906.98 1411.34    1.92    1.96    2.27    0.48   77.87    9.02
 2509.57 1907.07 1411.46    1.89    1.88    2.26    0.49   68.87    9.02
 2509.72 1907.17 1411.57     1.9    1.84    2.25    0.48      64    9.01
 2509.88 1907.27 1411.69    1.91    1.84    2.24    0.49   60.12    8.99
 2510.03 1907.37 1411.81    1.95    1.86    2.24    0.47   63.62    8.98
 2510.18 1907.47 1411.93    2.01    1.94    2.24    0.48    67.5    8.97
 2510.33 1907.56 1412.04     2.1    2.07    2.24    0.47   64.68    8.95
 2510.49 1907.66 1412.16    2.23     2.2    2.22    0.47   66.56    8.93
 2510.64 1907.76 1412.28    2.35    2.31    2.21    0.45   67.37    8.91
 2510.79 1907.86 1412.39    2.47    2.42    2.21    0.46   71.12    8.92
 2510.94 1907.95 1412.51    2.61    2.53    2.21    0.44   70.12    8.93
 2511.09 1908.05 1412.63    2.68    2.56     2.2    0.41   65.87    8.91
 2511.25 1908.15 1412.74    2.67    2.53    2.19     0.4   60.37     8.9
  2511.4 1908.25 1412.86    2.58    2.45     2.2    0.41   59.43    8.89
 2511.55 1908.34 1412.98    2.37    2.33    2.21    0.45   60.91    8.94
  2511.7 1908.44  1413.1    2.16    2.17    2.22    0.45   69.88    8.95
