# LAS format log file from PETREL
# Project units are specified as depth units
#==================================================================
~Version information
VERS.   2.0:
WRAP.   NO:
#==================================================================
~Well
STRT .m           1170.74 :
STOP .m           2999.99 :
STEP .m        0.15240000 :
NULL .        -999.250000 :
COMP.                     : COMPANY
WELL.           WELLB-2   : WELL
FLD.                      : FIELD
LOC.                      : LOCATION
SRVC.                     : SERVICE COMPANY
DATE.  Wednesday, March 31 2010 12:32:42   : DATE
PROV.                     : PROVINCE
UWI.                      : UNIQUE WELL ID
API.                      : API NUMBER
#==================================================================
~Curve
DEPT    .m                : DEPTH
TVD     .m                : TRUE VERTICAL DEPTH
HRZDISP .m                : HORIZONTAL DISPLACEMENT
ILM .ohm.m                : ILM
ILD .ohm.m                : ILD
RHOB .g/cm3               : RHOB
NPHI .m3/m3               : NPHI
GR .gAPI                  : GR
CALI .in                  : CALI
~Parameter
#==================================================================
#  DEPT              TVD         HRZDISP       ILM          ILD           RHOB         NPHI           GR     CALI
~Ascii
 1170.74 1046.64  386.19    2000    2000 -999.25 -999.25    18.7 -999.25
 1170.89 1046.74   386.3    2000    2000 -999.25 -999.25   21.31 -999.25
 1171.04 1046.84  386.42    2000    2000 -999.25 -999.25    22.3 -999.25
 1171.19 1046.94  386.53    2000    2000 -999.25 -999.25   20.59 -999.25
 1171.35 1047.04  386.65    2000    2000 -999.25 -999.25   16.28 -999.25
  1171.5 1047.14  386.76    2000    2000 -999.25 -999.25   17.41 -999.25
 1171.65 1047.24  386.88    2000    2000 -999.25 -999.25    20.2 -999.25
  1171.8 1047.34  386.99    2000    2000 -999.25 -999.25   20.28 -999.25
 1171.96 1047.44   387.1    2000    2000 -999.25 -999.25   18.16 -999.25
 1172.11 1047.54  387.22    2000    2000 -999.25 -999.25   15.95 -999.25
 1172.26 1047.64  387.33    2000    2000 -999.25 -999.25    19.2 -999.25
 1172.41 1047.74  387.45    2000    2000 -999.25 -999.25    23.5 -999.25
 1172.57 1047.84  387.56    2000    2000 -999.25 -999.25   23.56 -999.25
 1172.72 1047.95  387.68    2000    2000 -999.25 -999.25   25.08 -999.25
 1172.87 1048.05  387.79    2000    2000 -999.25 -999.25   21.81 -999.25
 1173.02 1048.15  387.91    2000    2000 -999.25 -999.25   21.75 -999.25
 1173.18 1048.25  388.02    2000    2000 -999.25 -999.25   18.64 -999.25
 1173.33 1048.35  388.13    2000    2000 -999.25 -999.25   18.69 -999.25
 1173.48 1048.45  388.25    2000    2000 -999.25 -999.25   19.17 -999.25
 1173.63 1048.55  388.36    2000    2000 -999.25 -999.25   17.98 -999.25
 1173.78 1048.65  388.48    2000    2000 -999.25 -999.25   18.02 -999.25
 1173.94 1048.75  388.59    2000    2000 -999.25 -999.25   18.06 -999.25
 1174.09 1048.85  388.71    2000    2000 -999.25 -999.25   21.89 -999.25
 1174.24 1048.95  388.82    2000    2000 -999.25 -999.25   22.92 -999.25
 1174.39 1049.05  388.94    2000    2000 -999.25 -999.25    20.7 -999.25
 1174.55 1049.15  389.05    2000    2000 -999.25 -999.25   15.26 -999.25
  1174.7 1049.25  389.17    2000    2000 -999.25 -999.25    14.1 -999.25
 1174.85 1049.35  389.28    2000    2000 -999.25 -999.25   16.83 -999.25
    1175 1049.45  389.39    2000    2000 -999.25 -999.25   19.64 -999.25
 1175.16 1049.55  389.51    2000    2000 -999.25 -999.25   22.99 -999.25
 1175.31 1049.65  389.62    2000    2000 -999.25 -999.25   24.78 -999.25
 1175.46 1049.76  389.74    2000    2000 -999.25 -999.25   24.13 -999.25
 1175.61 1049.86  389.85    2000    2000 -999.25 -999.25   22.51 -999.25
 1175.77 1049.96  389.97    2000    2000 -999.25 -999.25   19.14 -999.25
 1175.92 1050.06  390.08    2000    2000 -999.25 -999.25   20.81 -999.25
 1176.07 1050.16  390.19    2000    2000 -999.25 -999.25   18.56 -999.25
 1176.22 1050.26  390.31    2000    2000 -999.25 -999.25   19.61 -999.25
 1176.38 1050.36  390.42    2000    2000 -999.25 -999.25   17.45 -999.25
 1176.53 1050.46  390.54    2000    2000 -999.25 -999.25   16.44 -999.25
 1176.68 1050.56  390.65    2000    2000 -999.25 -999.25   17.08 -999.25
 1176.83 1050.66  390.77    2000    2000 -999.25 -999.25   18.14 -999.25
 1176.99 1050.76  390.88    2000    2000 -999.25 -999.25   19.22 -999.25
 1177.14 1050.87  390.99    2000    2000 -999.25 -999.25   19.14 -999.25
 1177.29 1050.97  391.11    2000    2000 -999.25 -999.25   19.09 -999.25
 1177.44 1051.07  391.22    2000    2000 -999.25 -999.25   19.02 -999.25
 1177.59 1051.17  391.34    2000    2000 -999.25 -999.25   17.34 -999.25
 1177.75 1051.27  391.45    2000    2000 -999.25 -999.25   16.83 -999.25
  1177.9 1051.37  391.57    2000    2000 -999.25 -999.25   16.95 -999.25
 1178.05 1051.47  391.68    2000    2000 -999.25 -999.25   16.45 -999.25
  1178.2 1051.57  391.79    2000    2000 -999.25 -999.25   17.03 -999.25
 1178.36 1051.67  391.91    2000    2000 -999.25 -999.25   18.13 -999.25
 1178.51 1051.77  392.02    2000    2000 -999.25 -999.25    20.3 -999.25
 1178.66 1051.87  392.14    2000    2000 -999.25 -999.25   20.81 -999.25
 1178.81 1051.97  392.25    2000    2000 -999.25 -999.25   19.09 -999.25
 1178.97 1052.08  392.37    2000    2000 -999.25 -999.25   17.44 -999.25
 1179.12 1052.18  392.48    2000    2000 -999.25 -999.25   17.43 -999.25
 1179.27 1052.28  392.59    2000    2000 -999.25 -999.25   20.77 -999.25
 1179.42 1052.38  392.71    2000    2000 -999.25 -999.25   23.56 -999.25
 1179.58 1052.48  392.82    2000    2000 -999.25 -999.25   24.72 -999.25
 1179.73 1052.58  392.94    2000    2000 -999.25 -999.25   24.17 -999.25
 1179.88 1052.68  393.05    2000    2000 -999.25 -999.25   25.77 -999.25
 1180.03 1052.78  393.17    2000    2000 -999.25 -999.25   26.77 -999.25
 1180.19 1052.88  393.28    2000    2000 -999.25 -999.25   28.39 -999.25
 1180.34 1052.98  393.39    2000    2000 -999.25 -999.25   26.73 -999.25
 1180.49 1053.08  393.51    2000    2000 -999.25 -999.25      23 -999.25
 1180.64 1053.18  393.62    2000    2000 -999.25 -999.25   20.78 -999.25
  1180.8 1053.29  393.74    2000    2000 -999.25 -999.25   22.31 -999.25
 1180.95 1053.39  393.85    2000    2000 -999.25 -999.25   22.91 -999.25
  1181.1 1053.49  393.97    2000    2000 -999.25 -999.25   24.48 -999.25
 1181.25 1053.59  394.08    2000    2000 -999.25 -999.25   32.22 -999.25
  1181.4 1053.69  394.19    2000    2000 -999.25 -999.25   36.59 -999.25
 1181.56 1053.79  394.31    2000    2000 -999.25 -999.25   36.15 -999.25
 1181.71 1053.89  394.42 1998.33    2000 -999.25 -999.25   31.86 -999.25
 1181.86 1053.99  394.54     1.8    2000    2.55    0.41    31.8 -999.25
 1182.01 1054.09  394.65     1.4     2.3    2.51    0.38   32.78 -999.25
 1182.17 1054.19  394.77    0.82    1.08    2.52    0.39   31.11 -999.25
 1182.32 1054.29  394.88    1.12    0.99    2.56     0.4   34.22 -999.25
 1182.47  1054.4  394.99    1.06    0.88    2.59    0.39   33.25 -999.25
 1182.62  1054.5  395.11    1.03    1.18    2.54    0.41   32.69 -999.25
 1182.78  1054.6  395.22    1.01    1.25    2.54    0.39   30.75 -999.25
 1182.93  1054.7  395.34    1.18    1.11    2.56    0.39   34.03 -999.25
 1183.08  1054.8  395.45    1.15    1.06    2.51     0.4   35.19 -999.25
 1183.23  1054.9  395.57    1.09    1.04    2.58     0.4   35.06 -999.25
 1183.39    1055  395.68    1.09    1.09    2.51    0.41   30.09 -999.25
 1183.54  1055.1  395.79     1.2    1.12    2.59     0.4   25.63 -999.25
 1183.69  1055.2  395.91    1.52    1.12     2.6     0.4      26 -999.25
 1183.84  1055.3  396.02    1.54    1.12     2.6     0.4   27.67 -999.25
    1184  1055.4  396.14     1.5    1.24    2.53    0.41   33.72 -999.25
 1184.15  1055.5  396.25    1.51    1.31     2.5    0.38    31.2 -999.25
  1184.3 1055.61  396.37    1.53    1.36    2.52    0.41   32.35 -999.25
 1184.45 1055.71  396.48     1.6    1.42    2.59     0.4   34.03 -999.25
 1184.61 1055.81  396.59    1.67    1.44    2.59    0.39   37.44 -999.25
 1184.76 1055.91  396.71    1.76    1.48     2.5     0.4   40.69 -999.25
 1184.91 1056.01  396.82    1.84    1.55    2.51    0.39   38.37 -999.25
 1185.06 1056.11  396.94    1.92     1.6    2.56    0.39    35.5 -999.25
 1185.21 1056.21  397.05    2.04     1.6    2.54    0.39   33.25 -999.25
 1185.37 1056.31  397.17       2     1.6     2.5    0.38   31.64 -999.25
 1185.52 1056.41  397.28    1.94    1.62    2.57    0.38   32.81 -999.25
 1185.67 1056.51  397.39    1.92    1.62    2.55     0.4   33.35 -999.25
 1185.82 1056.61  397.51    1.93    1.64    2.55    0.39    37.4 -999.25
 1185.98 1056.72  397.62    1.94    1.67    2.59     0.4   40.78 -999.25
 1186.13 1056.82  397.74    1.99    1.69    2.59    0.39   38.06 -999.25
 1186.28 1056.92  397.85    2.04    1.73    2.58     0.4   32.84 -999.25
 1186.43 1057.02  397.97    2.06    1.76    2.51     0.4   27.24 -999.25
 1186.59 1057.12  398.08     2.1    1.76    2.59    0.38   31.59 -999.25
 1186.74 1057.22  398.19    2.15    1.73    2.57    0.39   36.03 -999.25
 1186.89 1057.32  398.31    2.13    1.72    2.55    0.41    41.5 -999.25
 1187.04 1057.42  398.42    2.09    1.73    2.56    0.39   39.25 -999.25
  1187.2 1057.52  398.54    2.13    1.72    2.52    0.39    35.5 -999.25
 1187.35 1057.62  398.65    2.12    1.74    2.57    0.41   32.84 -999.25
