# LAS format log file from PETREL
# Project units are specified as depth units
#==================================================================
~Version information
VERS.   2.0:
WRAP.   NO:
#==================================================================
~Well
STRT .m           1170.74 :
STOP .m           2999.99 :
STEP .m        0.15240000 :
NULL .        -999.250000 :
COMP.                     : COMPANY
WELL.           WELLB-2   : WELL
FLD.                      : FIELD
LOC.                      : LOCATION
SRVC.                     : SERVICE COMPANY
DATE.  Wednesday, March 31 2010 12:32:42   : DATE
PROV.                     : PROVINCE
UWI.                      : UNIQUE WELL ID
API.                      : API NUMBER
#==================================================================
~Curve
DEPT    .m                : DEPTH
TVD     .m                : TRUE VERTICAL DEPTH
HRZDISP .m                : HORIZONTAL DISPLACEMENT
ILM .ohm.m                : ILM
ILD .ohm.m                : ILD
RHOB .g/cm3               : RHOB
NPHI .m3/m3               : NPHI
GR .gAPI                  : GR
CALI .in                  : CALI
~Parameter
#==================================================================
#  DEPT              TVD         HRZDISP       ILM          ILD           RHOB         NPHI           GR     CALI
~Ascii
# ...
 2612.44 1973.94 1489.64   28.59   33.28    2.05    0.48   37.81    8.47
 2612.59 1974.04 1489.75   28.84   33.53    2.04    0.48   38.21    8.55
 2612.75 1974.14 1489.87   30.18      33    2.05    0.46   38.25    8.52
  2612.9 1974.24 1489.99   32.56    31.7    2.12    0.37   37.25    8.48
 2613.05 1974.34  1490.1   34.96   31.15    2.22    0.32   36.68    8.48
  2613.2 1974.44 1490.22   37.78   32.12    2.25    0.33   36.81    8.43
 2613.36 1974.54 1490.33    40.5   34.87    2.17    0.37   38.37    8.43
 2613.51 1974.63 1490.45   41.43    37.9    2.08     0.4   37.81    8.43
 2613.66 1974.73 1490.56   41.31      39    2.02    0.41   39.59    8.43
 2613.81 1974.83 1490.68   40.78   38.65       2    0.43   40.28    8.44
 2613.96 1974.93 1490.79    39.4   36.84       2    0.41    45.9    8.44
 2614.12 1975.03 1490.91   36.93   33.31       2    0.41   48.75    8.44
 2614.27 1975.13 1491.03    33.4   29.23    1.99     0.4   51.25    8.42
 2614.42 1975.23 1491.14   29.12   25.34    1.99    0.41   50.59    8.44
 2614.57 1975.33 1491.26   24.48   22.15       2    0.43    51.4    8.44
 2614.73 1975.43 1491.37   20.25   19.81    2.01    0.43    52.4    8.44
 2614.88 1975.53 1491.49   17.07   18.15    2.04    0.44   50.71    8.43
 2615.03 1975.63  1491.6   15.25   16.95    2.06    0.43   49.84    8.43
 2615.18 1975.73 1491.72   14.62   16.12    2.08    0.44   50.87    8.44
 2615.34 1975.83 1491.83    14.6   15.54    2.08    0.42   54.59    8.44
 2615.49 1975.93 1491.95   14.89   15.21    2.07     0.4   56.03    8.42
 2615.64 1976.03 1492.06   15.45   15.14    2.05     0.4   57.62    8.43
 2615.79 1976.13 1492.18   15.96   15.27    2.04    0.41   54.59    8.43
 2615.95 1976.23  1492.3   16.21   15.71    2.04    0.41   51.84    8.44
  2616.1 1976.33 1492.41   16.32    16.6    2.04    0.38    49.9    8.43
 2616.25 1976.43 1492.53   16.62   17.92    2.06    0.42   50.65    8.44
  2616.4 1976.52 1492.64   17.73   19.28    2.07    0.43   51.84    8.43
 2616.56 1976.62 1492.76   19.64   19.96    2.06    0.45   51.93    8.42
 2616.71 1976.72 1492.87   21.09   20.14    2.02     0.4   53.18    8.43
 2616.86 1976.82 1492.99   21.46   20.15       2     0.4   53.28    8.44
 2617.01 1976.92  1493.1   21.21    19.9    2.01    0.39    55.5    8.43
 2617.17 1977.02 1493.22   20.32   19.54    2.04    0.41   56.68    8.43
 2617.32 1977.12 1493.34   19.09   19.14    2.05     0.4   59.06    8.42
 2617.47 1977.22 1493.45   17.59   18.53    2.06    0.41   60.34    8.43
 2617.62 1977.32 1493.57   16.06   17.67    2.07    0.41   59.96    8.43
 2617.77 1977.42 1493.68   15.24   16.71    2.09     0.4    60.4    8.41
 2617.93 1977.52  1493.8   14.85      16    2.12     0.4   59.62    8.42
 2618.08 1977.62 1493.91   14.89   15.68    2.12    0.45   59.37    8.43
 2618.23 1977.72 1494.03   15.24    15.6    2.12    0.48   59.25    8.42
 2618.38 1977.82 1494.14   15.56    15.7    2.07     0.5   58.96    8.44
 2618.54 1977.92 1494.26   16.06   16.12    2.05    0.47   59.81    8.43
 2618.69 1978.02 1494.37   16.85   16.87    2.03    0.48   56.03    8.42
 2618.84 1978.12 1494.49   17.81   17.84    2.02    0.46   53.53    8.41
 2618.99 1978.22 1494.61   18.84   18.73    2.01    0.45   51.06    8.43
 2619.15 1978.31 1494.72   19.71   19.32    2.01    0.42   49.59    8.42
  2619.3 1978.41 1494.84   20.18    19.7    2.01     0.4   49.53    8.42
 2619.45 1978.51 1494.95   20.29   19.92       2     0.4   49.34    8.43
  2619.6 1978.61 1495.07   20.25   20.04       2    0.41   49.93    8.44
 2619.76 1978.71 1495.18    20.2   20.12       2    0.43   49.43    8.44
 2619.91 1978.81  1495.3   20.15   20.17    2.01    0.41   50.18    8.43
 2620.06 1978.91 1495.41   20.09   20.14    2.02    0.41   51.28    8.43
 2620.21 1979.01 1495.53   20.06   20.04    2.03     0.4   49.81    8.43
 2620.37 1979.11 1495.64   19.98   19.98    2.02    0.44   49.84    8.43
 2620.52 1979.21 1495.76   19.85   19.98    2.02    0.44   51.09    8.43
 2620.67 1979.31 1495.88   19.75   20.07    2.03    0.48   51.65    8.42
 2620.82 1979.41 1495.99   19.81   20.35    2.05    0.47   49.87    8.42
 2620.98 1979.51 1496.11   20.37   20.89    2.08    0.48   48.18    8.41
 2621.13 1979.61 1496.22   21.51   21.57    2.08    0.45   50.43    8.38
 2621.28 1979.71 1496.34    22.7   22.21    2.06    0.44   51.01    8.39
 2621.43 1979.81 1496.45   23.57   22.78    2.02    0.44   55.12     8.4
 2621.58 1979.91 1496.57   24.26   23.39    1.99    0.42   55.43    8.38
 2621.74 1980.01 1496.68    24.7   24.09    1.99    0.41   55.71    8.39
 2621.89  1980.1  1496.8   24.84   24.75       2    0.41      54     8.4
 2622.04  1980.2 1496.92   24.76   25.14    2.01    0.41    53.9     8.4
 2622.19  1980.3 1497.03    24.6   25.23    2.02    0.41   54.81    8.38
 2622.35  1980.4 1497.15   24.51    25.2    2.03    0.41    53.5    8.38
  2622.5  1980.5 1497.26    24.5   25.14    2.02    0.41   52.25     8.4
 2622.65  1980.6 1497.38   24.56    25.1    2.02    0.42   53.93    8.39
  2622.8  1980.7 1497.49   24.85   25.26    2.01    0.42   53.87    8.39
 2622.96  1980.8 1497.61   25.53   25.87    2.01     0.4      54     8.4
 2623.11  1980.9 1497.72   26.78   27.09       2     0.4   51.43    8.41
 2623.26    1981 1497.84   28.89   28.89    2.01     0.4   50.18    8.41
 2623.41  1981.1 1497.95   32.34   31.01    2.02    0.37   49.15     8.4
 2623.57  1981.2 1498.07   37.25   33.21    2.11    0.27   47.68    8.41
 2623.72  1981.3 1498.19   43.13    35.4    2.26    0.18   48.46    8.43
 2623.87  1981.4  1498.3   49.47   37.68    2.48    0.11   46.06    8.45
 2624.02  1981.5 1498.42   55.91   40.21    2.59     0.1   46.02    8.44
 2624.18  1981.6 1498.53   60.87   42.12    2.63     0.1   42.78    8.45
 2624.33  1981.7 1498.65   62.56   42.84    2.66    0.11   42.09    8.44
 2624.48  1981.8 1498.76   60.43   42.09    2.64    0.14   40.09    8.44
 2624.63  1981.9 1498.88   54.31   39.59    2.47    0.22      43    8.44
 2624.79 1981.99 1498.99   47.18   36.43    2.25    0.32   47.25    8.44
 2624.94 1982.09 1499.11   41.37   33.46     2.1    0.39   51.53    8.42
 2625.09 1982.19 1499.22   36.46    30.4    2.02     0.4   54.62    8.41
 2625.24 1982.29 1499.34   32.05    27.2    1.98    0.39   56.31    8.41
 2625.39 1982.39 1499.46   27.92   23.91    1.96    0.41   59.71    8.41
 2625.55 1982.49 1499.57   23.83   20.95    1.95    0.43   59.58    8.41
  2625.7 1982.59 1499.69   19.89   18.82    1.98    0.44   56.84     8.4
 2625.85 1982.69  1499.8      17    17.5    2.02    0.41   54.09    8.42
    2626 1982.79 1499.92   15.66    16.6    2.07    0.41   52.21    8.44
 2626.16 1982.89 1500.03   15.33   15.89    2.07    0.41   51.84    8.44
 2626.31 1982.99 1500.15   15.32   15.31    2.06    0.42   50.18    8.44
 2626.46 1983.09 1500.26    15.4   15.03    2.04    0.42   51.28    8.44
 2626.61 1983.19 1500.38   15.61      15    2.04    0.44   49.81    8.44
 2626.77 1983.29  1500.5   15.82   15.15    2.05    0.43   50.62    8.44
 2626.92 1983.39 1500.61   15.92   15.51    2.05    0.43   50.03    8.44
 2627.07 1983.59 1500.64   16.04      16    2.04    0.43   52.15    8.44
 2627.22 1983.69 1500.75   16.37   16.37    2.03    0.42   52.21    8.44
 2627.38 1983.79 1500.87   16.87   16.59    2.02    0.43   51.37    8.45
 2627.53 1983.89 1500.98   17.29   16.65       2    0.41   52.28    8.45
 2627.68 1983.99  1501.1   17.48   16.62    1.98    0.44   52.03    8.44
 2627.83 1984.09 1501.21   17.54   16.65    1.97    0.43   53.84    8.44
 2627.99 1984.19 1501.33   17.56   16.75    1.97    0.42   55.53    8.44
 2628.14 1984.29 1501.44   17.54   16.84    1.98     0.4   57.59    8.45
 2628.29 1984.39 1501.56   17.51   16.85       2     0.4   58.93    8.44
 2628.44 1984.49 1501.67   17.42   16.71       2    0.41   57.34    8.44
  2628.6 1984.59 1501.79   17.18   16.45    2.01    0.43   54.37    8.45
 2628.75 1984.69  1501.9   16.67   16.03       2    0.45      52    8.44
  2628.9 1984.79 1502.02   15.87   15.35       2    0.44   49.34    8.44
 2629.05 1984.89 1502.13   14.89    14.5       2    0.44   52.43    8.44
