# LAS format log file from PETREL
# Project units are specified as depth units
#==================================================================
~Version information
VERS.   2.0:
WRAP.   NO:
#==================================================================
~Well
STRT .m           1170.74 :
STOP .m           2999.99 :
STEP .m        0.15240000 :
NULL .        -999.250000 :
COMP.                     : COMPANY
WELL.           WELLB-2   : WELL
FLD.                      : FIELD
LOC.                      : LOCATION
SRVC.                     : SERVICE COMPANY
DATE.  Wednesday, March 31 2010 12:32:42   : DATE
PROV.                     : PROVINCE
UWI.                      : UNIQUE WELL ID
API.                      : API NUMBER
#==================================================================
~Curve
DEPT    .m                : DEPTH
TVD     .m                : TRUE VERTICAL DEPTH
HRZDISP .m                : HORIZONTAL DISPLACEMENT
ILM .ohm.m                : ILM
ILD .ohm.m                : ILD
RHOB .g/cm3               : RHOB
NPHI .m3/m3               : NPHI
GR .gAPI                  : GR
CALI .in                  : CALI
~Parameter
#==================================================================
#  DEPT              TVD         HRZDISP       ILM          ILD           RHOB         NPHI           GR     CALI
~Ascii
# ...
 1891.59 1514.26  934.58    1.62    1.68    2.51    0.39   51.65 -999.25
 1891.74 1514.36   934.7    2.49    1.47     2.6     0.4   50.47 -999.25
 1891.89 1514.46  934.82    1.95    1.59    2.51    0.39   51.88 -999.25
 1892.05 1514.55  934.94    1.53    1.23    2.59    0.39   52.67 -999.25
  1892.2 1514.65  935.06    1.51    1.65    2.52     0.4   52.46 -999.25
 1892.35 1514.74  935.18    1.56    1.39    2.53     0.4   52.57 -999.25
  1892.5 1514.84   935.3    1.38    1.49    2.55    0.41   51.49 -999.25
 1892.66 1514.93  935.42    2.03    2.11     2.6     0.4    52.4 -999.25
 1892.81 1515.03  935.53    1.96    1.58    2.54    0.39   54.45 -999.25
 1892.96 1515.13  935.65     1.5    1.55    2.52     0.4   50.11 -999.25
 1893.11 1515.22  935.77     2.2    1.47    2.57     0.4   54.96 -999.25
 1893.27 1515.32  935.89    1.94     1.4    2.59    0.38   54.45 -999.25
 1893.42 1515.41  936.01     1.9    1.95    2.55    0.41    54.7 -999.25
 1893.57 1515.51  936.13    1.51     1.1    2.58     0.4   52.64 -999.25
 1893.72  1515.6  936.25    1.54    1.57     2.6    0.39   51.96 -999.25
 1893.87  1515.7  936.36    1.58    1.55    2.54    0.39   54.68 -999.25
 1894.03 1515.79  936.48    1.48    1.38    2.52     0.4   52.05 -999.25
 1894.18 1515.89   936.6    1.45    1.35    2.59    0.39   53.74 -999.25
 1894.33 1515.99  936.72    1.29    1.41    2.51     0.4   50.67 -999.25
 1894.48 1516.08  936.84    1.55    1.61    2.54    0.38   53.43 -999.25
 1894.64 1516.18  936.96    1.65    1.33    2.56     0.4   53.82 -999.25
 1894.79 1516.27  937.08    1.46    1.32    2.58     0.4   53.23 -999.25
 1894.94 1516.37   937.2    1.45    1.51    2.53    0.41   51.39 -999.25
 1895.09 1516.46  937.31    1.41    1.95    2.59    0.41   51.52 -999.25
 1895.25 1516.56  937.43    1.65    1.27    2.55    0.39   54.66 -999.25
  1895.4 1516.65  937.55    1.23    1.44    2.53    0.39   53.15 -999.25
 1895.55 1516.75  937.67    1.58     1.4    2.56     0.4   50.94 -999.25
  1895.7 1516.85  937.79     1.3     2.3    2.57    0.39   50.49 -999.25
 1895.86 1516.94  937.91     2.4    1.31     2.5     0.4   52.87 -999.25
 1896.01 1517.04  938.03    2.03    1.72    2.59     0.4   50.99 -999.25
 1896.16 1517.13  938.14    1.33    1.56    2.52    0.39   51.62 -999.25
 1896.31 1517.23  938.26     1.2    1.65     2.5    0.39    51.7 -999.25
 1896.47 1517.32  938.38    1.43    1.56     2.6    0.38   51.11 -999.25
 1896.62 1517.42   938.5    1.91    1.34    2.58    0.39   53.76 -999.25
 1896.77 1517.52  938.62     1.5    1.42    2.54    0.38   54.43 -999.25
 1896.92 1517.61  938.74    1.52    2.23    2.56    0.38   53.93 -999.25
 1897.08 1517.71  938.86    1.91    1.14     2.5    0.39   52.96 -999.25
 1897.23  1517.8  938.98    1.47    1.45    2.58    0.39   50.14 -999.25
 1897.38  1517.9  939.09    1.92    1.44    2.56    0.38   54.11 -999.25
 1897.53 1517.99  939.21    1.54     1.3    2.54    0.39   51.84 -999.25
 1897.68 1518.09  939.33    1.44    1.64    2.56     0.4   53.14 -999.25
 1897.84 1518.18  939.45     1.8    1.38    2.58    0.41   54.72 -999.25
 1897.99 1518.28  939.57    1.61    1.37    2.52     0.4   54.43 -999.25
 1898.14 1518.38  939.69    1.31    2.14     2.5    0.39   52.88 -999.25
 1898.29 1518.47  939.81    1.34     1.3    2.57    0.41    50.5 -999.25
 1898.45 1518.57  939.92    1.05    1.65    2.54    0.38   52.48 -999.25
  1898.6 1518.66  940.04    1.84    1.75    2.51    0.41   52.55 -999.25
 1898.75 1518.76  940.16    2.19    2.44    2.55    0.39   50.86 -999.25
  1898.9 1518.85  940.28    1.33    1.17    2.52     0.4   54.55 -999.25
 1899.06 1518.95   940.4    1.56    1.32    2.57     0.4   51.73 -999.25
 1899.21 1519.04  940.52    1.45    1.44    2.56     0.4   54.01 -999.25
 1899.36 1519.14  940.64    1.95    1.46     2.5    0.41   54.17 -999.25
 1899.51 1519.24  940.76    1.32    1.73    2.59    0.39   54.68 -999.25
 1899.67 1519.33  940.87    1.71    1.89    2.57    0.39   51.74 -999.25
 1899.82 1519.43  940.99    1.85    1.76    2.54    0.39    51.4 -999.25
 1899.97 1519.52  941.11    1.17    1.45    2.55    0.41   53.63 -999.25
 1900.12 1519.62  941.23    1.75     1.7    2.52    0.41   54.31 -999.25
 1900.28 1519.71  941.35    1.46    1.81    2.55    0.41   53.88 -999.25
 1900.43 1519.81  941.47    1.42    1.51    2.55    0.38   54.69 -999.25
 1900.58 1519.91  941.59    1.55    1.46    2.56    0.39   51.97 -999.25
 1900.73    1520   941.7    1.39    1.34    2.57    0.41   50.91 -999.25
 1900.89  1520.1  941.82    1.78    1.82    2.58     0.4   50.55 -999.25
 1901.04 1520.19  941.94     1.7     1.6    2.56    0.39   54.46 -999.25
 1901.19 1520.29  942.06    1.41    1.41    2.54    0.39   54.75 -999.25
 1901.34 1520.38  942.18    1.14    1.44    2.56    0.38   52.48 -999.25
 1901.49 1520.48   942.3    1.45    1.49     2.6    0.39   50.54 -999.25
 1901.65 1520.57  942.42    1.76    1.04    2.52    0.39   54.98 -999.25
  1901.8 1520.67  942.54    1.44    1.44    2.59     0.4   53.66 -999.25
 1901.95 1520.77  942.65    1.25    1.03    2.54    0.39   54.06 -999.25
  1902.1 1520.86  942.77     1.5    1.45    2.57    0.39   52.26 -999.25
 1902.26 1520.96  942.89     1.5    1.81    2.55     0.4   53.93 -999.25
 1902.41 1521.05  943.01    1.35    1.53    2.55    0.39   51.92 -999.25
 1902.56 1521.15  943.13    1.67    2.01    2.54     0.4   50.39 -999.25
 1902.71 1521.24  943.25    1.75    1.31    2.54    0.38   50.19 -999.25
 1902.87 1521.34  943.37    1.39    1.44     2.5    0.39   51.91 -999.25
 1903.02 1521.44  943.48     1.5    1.53    2.59    0.41   54.85 -999.25
 1903.17 1521.53   943.6    1.51    1.48    2.54     0.4   53.77 -999.25
 1903.32 1521.63  943.72    2.41    1.48    2.54     0.4   51.95 -999.25
 1903.48 1521.72  943.84    1.48    1.29    2.55     0.4   53.73 -999.25
 1903.63 1521.82  943.96    1.52    1.22    2.51     0.4   50.63 -999.25
 1903.78 1521.91  944.08    1.54    1.58    2.54    0.41   52.31 -999.25
 1903.93 1522.01   944.2     2.3    1.54    2.53     0.4   54.42 -999.25
 1904.09  1522.1  944.32    1.83    1.84    2.56     0.4   54.07 -999.25
 1904.24  1522.2  944.43    1.74    1.37    2.59     0.4   53.39 -999.25
 1904.39  1522.3  944.55    1.77    1.38    2.51    0.41   53.32 -999.25
 1904.54 1522.39  944.67    1.52    1.59    2.59     0.4   50.47 -999.25
  1904.7 1522.49  944.79     1.5    1.37    2.56    0.41   50.42 -999.25
 1904.85 1522.58  944.91    1.53    1.41    2.56    0.39   52.22 -999.25
    1905 1522.68  945.03    1.55    1.95     2.5    0.39   52.01 -999.25
 1905.15 1522.77  945.15    1.67    1.62    2.59    0.41   52.95 -999.25
  1905.3 1522.87  945.26    1.51    1.66     2.6    0.39   52.12 -999.25
 1905.46 1522.96  945.38    1.74    1.58    2.54    0.41   50.24 -999.25
 1905.61 1523.06   945.5    2.15    2.03    2.58     0.4    53.2 -999.25
 1905.76 1523.16  945.62    1.61    1.04    2.57    0.39   54.71 -999.25
 1905.91 1523.25  945.74    1.74    2.18    2.51    0.39   50.07 -999.25
 1906.07 1523.35  945.86     1.2    1.33    2.59    0.38   52.58 -999.25
 1906.22 1523.44  945.98    1.62    1.56    2.57    0.39   53.28 -999.25
 1906.37 1523.54   946.1    1.68    1.57    2.57     0.4   52.78 -999.25
 1906.52 1523.63  946.21     1.5    1.39    2.58    0.39   53.76 -999.25
 1906.68 1523.73  946.33    1.26    1.55    2.59     0.4   52.84 -999.25
 1906.83 1523.83  946.45    1.44    1.53    2.53     0.4   51.45 -999.25
 1906.98 1523.92  946.57    1.56    1.62    2.51     0.4   53.45 -999.25
 1907.13 1524.02  946.69    1.51    2.53    2.51     0.4   54.78 -999.25
 1907.29 1524.11  946.81    1.47    1.45    2.53    0.41   54.87 -999.25
 1907.44 1524.21  946.93    1.23    1.34    2.57    0.38   54.49 -999.25
 1907.59  1524.3  947.04    1.52    1.27     2.6    0.38   50.52 -999.25
 1907.74  1524.4  947.16    1.17    1.46    2.53     0.4   50.38 -999.25
  1907.9 1524.49  947.28    2.65    1.19    2.59    0.38   53.15 -999.25
 1908.05 1524.59   947.4    1.51    1.38    2.56    0.41   52.73 -999.25
  1908.2 1524.69  947.52    1.58    1.55    2.51    0.41   52.17 -999.25
