# LAS format log file from PETREL
# Project units are specified as depth units
#==================================================================
~Version information
VERS.   2.0:
WRAP.   NO:
#==================================================================
~Well
STRT .m           1170.74 :
STOP .m           2999.99 :
STEP .m        0.15240000 :
NULL .        -999.250000 :
COMP.                     : COMPANY
WELL.           WELLB-2   : WELL
FLD.                      : FIELD
LOC.                      : LOCATION
SRVC.                     : SERVICE COMPANY
DATE.  Wednesday, March 31 2010 12:32:42   : DATE
PROV.                     : PROVINCE
UWI.                      : UNIQUE WELL ID
API.                      : API NUMBER
#==================================================================
~Curve
DEPT    .m                : DEPTH
TVD     .m                : TRUE VERTICAL DEPTH
HRZDISP .m                : HORIZONTAL DISPLACEMENT
ILM .ohm.m                : ILM
ILD .ohm.m                : ILD
RHOB .g/cm3               : RHOB
NPHI .m3/m3               : NPHI
GR .gAPI                  : GR
CALI .in                  : CALI
~Parameter
#==================================================================
#  DEPT              TVD         HRZDISP       ILM          ILD           RHOB         NPHI           GR     CALI
~Ascii
# ...
 2746.55 2063.12 1589.79    1.24    1.17    2.45    0.46   80.37    8.84
 2746.71 2063.22  1589.9    1.22    1.17    2.42    0.47   85.56    8.85
 2746.86 2063.33 1590.02     1.2    1.17    2.37    0.45   87.87    8.84
 2747.01 2063.43 1590.13    1.19    1.16    2.34    0.45   90.93    8.86
 2747.16 2063.53 1590.24    1.19    1.16    2.32    0.47   89.93    8.86
 2747.31 2063.64 1590.35    1.19    1.15    2.33    0.44   88.06    8.86
 2747.47 2063.74 1590.47    1.19    1.15    2.34    0.47   86.25    8.86
 2747.62 2063.84 1590.58     1.2    1.15    2.33    0.43   83.12    8.87
 2747.77 2063.95 1590.69     1.2    1.15    2.34    0.49   82.75    8.85
 2747.92 2064.05  1590.8     1.2    1.15    2.33    0.49   84.37    8.87
 2748.08 2064.15 1590.91     1.2    1.15    2.33    0.48   81.62    8.87
 2748.23 2064.25 1591.03    1.19    1.14    2.34    0.46    78.8    8.87
 2748.38 2064.36 1591.14    1.17    1.13    2.35    0.47      74    8.84
 2748.53 2064.46 1591.25    1.15    1.11    2.38    0.49   75.32    8.83
 2748.69 2064.56 1591.36    1.13    1.09    2.36    0.45   79.37    8.84
 2748.84 2064.67 1591.48    1.11    1.08    2.35    0.49   84.18    8.83
 2748.99 2064.77 1591.59    1.11    1.07    2.33    0.46   87.75    8.84
 2749.14 2064.87  1591.7    1.11    1.07    2.33    0.48   89.06    8.84
  2749.3 2064.98 1591.81    1.11    1.07    2.31    0.48   86.75    8.83
 2749.45 2065.08 1591.93    1.12    1.07     2.3    0.44   83.31    8.83
  2749.6 2065.18 1592.04    1.12    1.07     2.3    0.44   84.56    8.83
 2749.75 2065.28 1592.15    1.12    1.07    2.32    0.46   85.87    8.82
 2749.91 2065.39 1592.26    1.12    1.07    2.33    0.44   87.75    8.81
 2750.06 2065.49 1592.38    1.12    1.07    2.33    0.48   85.56    8.82
 2750.21 2065.59 1592.49    1.11    1.07    2.33    0.44      84    8.83
 2750.36  2065.7  1592.6    1.11    1.07    2.34    0.49   84.75     8.8
 2750.52  2065.8 1592.71     1.1    1.06    2.33    0.49   84.81     8.8
 2750.67  2065.9 1592.82     1.1    1.05    2.32    0.46    88.5     8.8
 2750.82 2066.01 1592.94     1.1    1.05    2.32    0.49   85.62    8.79
 2750.97 2066.11 1593.05     1.1    1.05    2.32    0.43   86.37    8.77
 2751.12 2066.21 1593.16     1.1    1.05    2.32    0.47   83.69    8.79
 2751.28 2066.31 1593.27     1.1    1.06    2.31    0.44    88.5    8.79
 2751.43 2066.42 1593.39    1.11    1.07    2.32    0.45   86.18    8.78
 2751.58 2066.52  1593.5    1.12    1.09    2.32    0.47   86.43    8.78
 2751.73 2066.62 1593.61    1.13     1.1    2.33    0.46   83.18    8.78
 2751.89 2066.73 1593.72    1.15    1.12    2.33    0.47   83.68    8.79
 2752.04 2066.83 1593.84    1.17    1.13    2.34    0.43   84.31    8.78
 2752.19 2066.93 1593.95    1.19    1.15    2.34    0.47   84.56    8.78
 2752.34 2067.03 1594.06     1.2    1.16    2.33    0.47   85.81     8.8
  2752.5 2067.14 1594.17    1.21    1.16    2.32    0.48   85.06    8.79
 2752.65 2067.24 1594.28    1.21    1.16    2.31    0.47   85.06    8.76
  2752.8 2067.34  1594.4    1.19    1.14    2.37     0.5   84.37    8.77
 2752.95 2067.45 1594.51    1.16    1.11    2.42    0.43   82.25    8.83
 2753.11 2067.55 1594.62    1.11    1.08    2.46    0.46   84.56     8.8
 2753.26 2067.65 1594.73    1.08    1.05    2.39    0.49    85.5    8.77
 2753.41 2067.76 1594.85    1.07    1.04    2.34    0.48   91.93    8.78
 2753.56 2067.86 1594.96    1.07    1.03    2.31    0.45   93.63    8.82
 2753.72 2067.96 1595.07    1.07    1.03     2.3     0.5   97.81    8.83
 2753.87 2068.06 1595.18    1.08    1.03     2.3    0.45   96.24     8.8
 2754.02 2068.17  1595.3     1.1    1.04    2.31    0.49   91.12    8.78
 2754.17 2068.27 1595.41    1.12    1.07    2.32    0.49   86.06    8.79
 2754.33 2068.37 1595.52    1.14    1.09    2.34    0.48    85.5    8.79
 2754.48 2068.48 1595.63    1.16    1.11    2.34    0.48      88    8.79
 2754.63 2068.58 1595.75    1.17    1.12    2.33    0.44   89.81    8.77
 2754.78 2068.68 1595.86    1.17    1.13    2.33    0.47    86.5    8.77
 2754.93 2068.79 1595.97    1.17    1.13    2.34    0.47   86.43    8.78
 2755.09 2068.89 1596.08    1.16    1.12    2.34    0.44   86.68    8.78
 2755.24 2068.99 1596.19    1.15    1.11    2.35    0.48      88    8.77
 2755.39 2069.09 1596.31    1.14     1.1    2.34    0.47    87.5    8.77
 2755.54  2069.2 1596.42    1.13    1.08    2.34    0.46    83.5    8.78
  2755.7  2069.3 1596.53    1.12    1.07    2.32    0.44   85.75    8.77
 2755.85  2069.4 1596.64    1.11    1.07    2.32    0.46   85.18    8.76
    2756 2069.51 1596.76    1.11    1.06    2.32    0.49    87.5    8.76
 2756.15 2069.61 1596.87    1.11    1.04    2.32    0.48   85.18    8.79
 2756.31 2069.71 1596.98     1.1    1.03    2.31    0.47   86.31    8.76
 2756.46 2069.82 1597.09    1.08    1.03    2.31    0.45      88    8.74
 2756.61 2069.92 1597.21    1.07    1.02    2.33     0.5   85.81    8.75
 2756.76 2070.02 1597.32    1.07    1.02    2.34    0.49   84.06    8.76
 2756.92 2070.12 1597.43    1.08    1.03    2.35    0.48   83.56    8.75
 2757.07 2070.23 1597.54    1.09    1.04    2.34    0.45   84.56    8.76
 2757.22 2070.33 1597.65    1.12    1.06    2.34    0.44   86.43    8.77
 2757.37 2070.43 1597.77    1.15    1.09    2.34     0.5   84.12    8.76
 2757.53 2070.54 1597.88    1.19    1.13    2.34     0.5   85.81    8.74
 2757.68 2070.64 1597.99    1.23    1.17    2.33    0.44   83.81    8.74
 2757.83 2070.74  1598.1    1.26     1.2    2.35    0.45   81.75    8.76
 2757.98 2070.85 1598.22    1.27     1.2    2.37    0.48   79.56    8.81
 2758.14 2070.95 1598.33    1.26     1.2    2.39    0.49      77    8.78
 2758.29 2071.05 1598.44    1.24    1.19    2.36    0.49   76.06    8.76
 2758.44 2071.15 1598.55    1.21    1.19    2.34    0.43    78.5    8.77
 2758.59 2071.26 1598.67    1.19    1.18    2.32    0.48   83.43    8.81
 2758.74 2071.36 1598.78    1.18    1.17    2.33    0.47   84.12    8.83
  2758.9 2071.46 1598.89    1.19    1.17    2.32    0.44   83.49    8.81
 2759.05 2071.57    1599    1.22    1.16    2.32    0.44   77.56    8.79
  2759.2 2071.67 1599.12    1.26    1.16    2.32    0.48    79.5     8.8
 2759.35 2071.77 1599.23    1.27    1.16    2.34     0.5   77.43    8.83
 2759.51 2071.88 1599.34    1.26    1.16    2.34    0.44   81.18    8.82
 2759.66 2071.98 1599.45    1.23    1.17    2.34    0.44   83.62    8.81
 2759.81 2072.08 1599.56    1.21    1.17    2.34    0.43   84.93    8.84
 2759.96 2072.18 1599.68    1.19    1.16    2.34    0.46   82.87     8.8
 2760.12 2072.29 1599.79    1.19    1.15    2.34     0.5   78.81    8.78
 2760.27 2072.39  1599.9    1.19    1.14    2.35    0.45   77.81    8.79
 2760.42 2072.49 1600.01    1.19    1.14    2.34    0.46   77.82     8.8
 2760.57  2072.6 1600.13    1.21    1.14    2.34    0.47   80.68    8.79
 2760.73  2072.7 1600.24    1.22    1.15    2.34    0.49   80.37    8.79
 2760.88  2072.8 1600.35    1.22    1.16    2.35    0.46   83.75    8.79
 2761.03 2072.91 1600.46    1.22    1.17    2.35    0.45      82     8.8
 2761.18 2073.01 1600.58    1.21    1.17    2.34     0.5   82.75    8.79
 2761.34 2073.11 1600.69    1.21    1.17    2.34     0.5   81.43    8.79
 2761.49 2073.21  1600.8     1.2    1.17    2.34    0.44    84.5     8.8
 2761.64 2073.32 1600.91     1.2    1.16    2.33    0.48   84.31     8.8
 2761.79 2073.42 1601.02    1.19    1.14    2.34    0.43   85.62    8.79
 2761.95 2073.52 1601.14    1.18    1.13    2.36    0.45   86.68     8.8
  2762.1 2073.63 1601.25    1.16    1.12    2.37    0.46   87.18     8.8
 2762.25 2073.73 1601.36    1.14     1.1    2.36    0.48   86.68    8.79
  2762.4 2073.83 1601.47    1.13    1.09    2.36    0.46   86.37    8.77
 2762.55 2073.93 1601.59    1.11    1.08    2.36     0.5   87.75    8.77
 2762.71 2074.04  1601.7     1.1    1.06    2.35    0.48   88.68    8.77
 2762.86 2074.14 1601.81    1.09    1.05    2.34    0.48    88.5    8.77
 2763.01 2074.24 1601.92    1.09    1.04    2.33    0.46   86.19    8.76
 2763.16 2074.35 1602.04    1.09    1.04    2.33    0.48   89.43    8.79
