# LAS format log file from PETREL
# Project units are specified as depth units
#==================================================================
~Version information
VERS.   2.0:
WRAP.   NO:
#==================================================================
~Well
STRT .m           1170.74 :
STOP .m           2999.99 :
STEP .m        0.15240000 :
NULL .        -999.250000 :
COMP.                     : COMPANY
WELL.           WELLB-2   : WELL
FLD.                      : FIELD
LOC.                      : LOCATION
SRVC.                     : SERVICE COMPANY
DATE.  Wednesday, March 31 2010 12:32:42   : DATE
PROV.                     : PROVINCE
UWI.                      : UNIQUE WELL ID
API.                      : API NUMBER
#==================================================================
~Curve
DEPT    .m                : DEPTH
TVD     .m                : TRUE VERTICAL DEPTH
HRZDISP .m                : HORIZONTAL DISPLACEMENT
ILM .ohm.m                : ILM
ILD .ohm.m                : ILD
RHOB .g/cm3               : RHOB
NPHI .m3/m3               : NPHI
GR .gAPI                  : GR
CALI .in                  : CALI
~Parameter
#==================================================================
#  DEPT              TVD         HRZDISP       ILM          ILD           RHOB         NPHI           GR     CALI
~Ascii
# ...
 2008.94 1586.83  1026.8     1.5    1.69    2.59     0.4   68.35 -999.25
 2009.09 1586.92 1026.92    1.55    1.42    2.57    0.38   65.83 -999.25
 2009.24 1587.01 1027.04    1.25    1.49     2.5     0.4   65.03 -999.25
 2009.39 1587.11 1027.16    1.38    2.05    2.56    0.39   66.95 -999.25
 2009.55  1587.2 1027.29    1.56    1.69    2.55     0.4   66.74 -999.25
  2009.7 1587.29 1027.41    1.51    1.81    2.56    0.41   66.58 -999.25
 2009.85 1587.39 1027.53    2.14    1.51    2.53    0.38   65.42 -999.25
    2010 1587.48 1027.65     2.1     1.5    2.55     0.4   70.95 -999.25
 2010.16 1587.57 1027.77    1.92    1.26    2.57    0.39   66.43 -999.25
 2010.31 1587.67 1027.89    1.74    1.51    2.59    0.39   65.32 -999.25
 2010.46 1587.76 1028.01    1.78    1.43    2.56    0.39   65.37 -999.25
 2010.61 1587.85 1028.13    1.51     1.3    2.54    0.38   69.04 -999.25
 2010.77 1587.95 1028.25    1.39    1.39    2.51     0.4   69.69 -999.25
 2010.92 1588.04 1028.37    1.41    1.56    2.59     0.4   68.22 -999.25
 2011.07 1588.13 1028.49    2.11    1.42    2.52     0.4    69.6 -999.25
 2011.22 1588.23 1028.61    1.51    1.32    2.51     0.4   66.08 -999.25
 2011.38 1588.32 1028.73    1.75    1.48    2.56     0.4   66.27 -999.25
 2011.53 1588.41 1028.85    1.64    1.35    2.58     0.4   71.65 -999.25
 2011.68 1588.51 1028.97     1.5    1.28    2.56     0.4   65.43 -999.25
 2011.83  1588.6 1029.09     1.7    2.05    2.51     0.4   69.31 -999.25
 2011.98 1588.69 1029.22    2.29    1.36    2.58    0.39   66.31 -999.25
 2012.14 1588.78 1029.34    1.69    1.43    2.58    0.41   67.77 -999.25
 2012.29 1588.88 1029.46    1.76    1.43    2.57     0.4   68.29 -999.25
 2012.44 1588.97 1029.58    1.48    2.12    2.54     0.4   71.94 -999.25
 2012.59 1589.06  1029.7    2.07    1.46    2.57    0.38   67.77 -999.25
 2012.75 1589.16 1029.82    1.71    1.35    2.51     0.4   70.28 -999.25
  2012.9 1589.25 1029.94    1.33       2    2.55    0.41   69.02 -999.25
 2013.05 1589.34 1030.06    1.43    1.76    2.53     0.4   71.06 -999.25
  2013.2 1589.44 1030.18    1.29    2.39    2.53     0.4   70.63 -999.25
 2013.36 1589.53  1030.3    1.56    1.42    2.58     0.4   71.99 -999.25
 2013.51 1589.62 1030.42    1.49    1.89     2.5    0.41   67.49 -999.25
 2013.66 1589.72 1030.54    1.27     1.7    2.55     0.4   71.22 -999.25
 2013.81 1589.81 1030.66    1.27    1.98    2.53    0.41   70.87 -999.25
 2013.97  1589.9 1030.78    1.49    2.12    2.52     0.4   69.12 -999.25
 2014.12    1590  1030.9    1.56    1.41    2.57     0.4   66.77 -999.25
 2014.27 1590.09 1031.02    1.66    1.06    2.54     0.4   65.36 -999.25
 2014.42 1590.18 1031.15    1.68    1.39    2.53    0.39   70.86 -999.25
 2014.58 1590.27 1031.27    1.52    1.66    2.56     0.4   68.19 -999.25
 2014.73 1590.37 1031.39    2.09    1.74    2.57    0.39   68.51 -999.25
 2014.88 1590.46 1031.51    1.32    1.61    2.52    0.41   70.97 -999.25
 2015.03 1590.55 1031.63    2.46    2.09    2.51    0.39   67.24 -999.25
 2015.19 1590.65 1031.75    1.52    2.38    2.55    0.39   65.32 -999.25
 2015.34 1590.74 1031.87    1.93    1.98    2.55    0.39   68.35 -999.25
 2015.49 1590.83 1031.99    1.59    1.82    2.52    0.38   66.03 -999.25
 2015.64 1590.93 1032.11     1.5    2.32    2.53    0.39   67.14 -999.25
 2015.79 1591.02 1032.23    1.55    1.47    2.59    0.39   67.18 -999.25
 2015.95 1591.11 1032.35    1.57    1.56    2.51    0.38   69.53 -999.25
  2016.1 1591.21 1032.47    1.67     1.7    2.56    0.38   70.96 -999.25
 2016.25  1591.3 1032.59    1.38     1.6    2.58    0.39   66.32 -999.25
  2016.4 1591.39 1032.71    1.59    1.33    2.57    0.39   67.26 -999.25
 2016.56 1591.49 1032.83    1.69    1.06    2.56    0.39   65.75 -999.25
 2016.71 1591.58 1032.95    1.98    1.39    2.57    0.39   71.16 -999.25
 2016.86 1591.67 1033.08    1.49    1.56    2.59    0.39   67.28 -999.25
 2017.01 1591.77  1033.2    1.61    1.68     2.6    0.39   71.43 -999.25
 2017.17 1591.86 1033.32    1.51     1.4     2.6    0.38    67.6 -999.25
 2017.32 1591.95 1033.44     1.1    1.52    2.55    0.39   69.91 -999.25
 2017.47 1592.04 1033.56    1.67    1.72    2.58    0.39   70.13 -999.25
 2017.62 1592.14 1033.68    1.48    1.78    2.51     0.4   71.03 -999.25
 2017.78 1592.23  1033.8    1.44     1.4    2.54    0.39   66.71 -999.25
 2017.93 1592.32 1033.92    1.58    1.82    2.57    0.39    65.9 -999.25
 2018.08 1592.42 1034.04    1.66    1.44    2.53     0.4   70.66 -999.25
 2018.23 1592.51 1034.16    1.24    1.45    2.51    0.39   67.17 -999.25
 2018.39  1592.6 1034.28    2.12    1.34    2.58    0.39   67.28 -999.25
 2018.54  1592.7  1034.4    1.44    1.55    2.58    0.38   70.83 -999.25
 2018.69 1592.79 1034.52    1.22    1.59    2.57    0.39    66.3 -999.25
 2018.84 1592.88 1034.64    1.53    1.15    2.53    0.41   69.44 -999.25
    2019 1592.98 1034.76    1.54    1.46    2.51    0.41   68.05 -999.25
 2019.15 1593.07 1034.88     1.5    1.96    2.51    0.38   67.52 -999.25
  2019.3 1593.16 1035.01    1.36     1.4    2.59     0.4   65.23 -999.25
 2019.45 1593.26 1035.13    1.37    2.31    2.51     0.4   66.85 -999.25
  2019.6 1593.35 1035.25    1.62    1.65    2.51     0.4   69.16 -999.25
 2019.76 1593.44 1035.37    1.23    1.43    2.59     0.4   67.14 -999.25
 2019.91 1593.53 1035.49    1.24    1.17    2.58    0.39   67.53 -999.25
 2020.06 1593.63 1035.61    1.47    1.64    2.52    0.39   69.93 -999.25
 2020.21 1593.72 1035.73    1.41     1.3    2.53     0.4   66.37 -999.25
 2020.37 1593.81 1035.85    1.71    2.11    2.51    0.39    70.8 -999.25
 2020.52 1593.91 1035.97     1.5    1.61    2.51    0.39    71.8 -999.25
 2020.67    1594 1036.09    1.56    1.05    2.58     0.4   71.97 -999.25
 2020.82 1594.09 1036.21    1.44    1.19    2.56     0.4   69.79 -999.25
 2020.98 1594.19 1036.33    2.01    1.45    2.52     0.4   71.54 -999.25
 2021.13 1594.28 1036.45     1.5    1.64    2.57    0.39   70.85 -999.25
 2021.28 1594.37 1036.57    1.42    1.42    2.55    0.41   68.97 -999.25
 2021.43 1594.47 1036.69    1.41    2.33    2.51    0.38   65.24 -999.25
 2021.59 1594.56 1036.81    1.53    1.47    2.51     0.4   71.86 -999.25
 2021.74 1594.65 1036.94    1.04    1.48    2.52    0.39   70.74 -999.25
 2021.89 1594.75 1037.06    1.43     1.4    2.57     0.4   68.24 -999.25
 2022.04 1594.84 1037.18     1.6    1.45     2.6    0.41   67.41 -999.25
  2022.2 1594.93  1037.3    2.03     1.4    2.58    0.39   65.65 -999.25
 2022.35 1595.02 1037.42    1.55    1.93     2.6    0.39   66.33 -999.25
  2022.5 1595.12 1037.54    1.61    1.98    2.56    0.41   70.56 -999.25
 2022.65 1595.21 1037.66    1.31    1.42    2.55    0.38   67.48 -999.25
 2022.81  1595.3 1037.78    1.62    1.75    2.52    0.39   67.98 -999.25
 2022.96  1595.4  1037.9    1.25    1.09    2.56    0.41   67.36 -999.25
 2023.11 1595.49 1038.02    1.47    1.34    2.53    0.38   71.01 -999.25
 2023.26 1595.58 1038.14    1.26    1.42    2.51    0.38    67.6 -999.25
 2023.41 1595.68 1038.26    1.64    1.44    2.52     0.4   71.52 -999.25
 2023.57 1595.77 1038.38    2.12    1.95    2.59    0.39   69.92 -999.25
 2023.72 1595.86  1038.5    1.06    1.47    2.54    0.39   71.85 -999.25
 2023.87 1595.96 1038.62    1.64    1.68    2.54    0.39   65.71 -999.25
 2024.02 1596.05 1038.74    1.65    1.32    2.54     0.4   67.51 -999.25
 2024.18 1596.14 1038.87    1.17     1.5    2.55    0.41   68.15 -999.25
 2024.33 1596.24 1038.99    1.45    1.33    2.57    0.38   68.42 -999.25
 2024.48 1596.33 1039.11    1.37    1.39    2.56    0.38   69.81 -999.25
 2024.63 1596.42 1039.23    1.56    1.41    2.56    0.41   67.61 -999.25
 2024.79 1596.52 1039.35     1.6    1.68    2.56    0.41   69.61 -999.25
 2024.94 1596.61 1039.47    1.43    1.53    2.55    0.41   70.95 -999.25
 2025.09  1596.7 1039.59    1.55    1.83    2.52    0.39   66.14 -999.25
 2025.24 1596.79 1039.71    1.21    1.46    2.56    0.38   70.38 -999.25
  2025.4 1596.89 1039.83    1.48    1.76    2.53    0.38   68.29 -999.25
 2025.55 1596.98 1039.95    1.49    2.31    2.59     0.4   66.07 -999.25
