# LAS format log file from PETREL
# Project units are specified as depth units
#==================================================================
~Version information
VERS.   2.0:
WRAP.   NO:
#==================================================================
~Well
STRT .m           1170.74 :
STOP .m           2999.99 :
STEP .m        0.15240000 :
NULL .        -999.250000 :
COMP.                     : COMPANY
WELL.           WELLB-2   : WELL
FLD.                      : FIELD
LOC.                      : LOCATION
SRVC.                     : SERVICE COMPANY
DATE.  Wednesday, March 31 2010 12:32:42   : DATE
PROV.                     : PROVINCE
UWI.                      : UNIQUE WELL ID
API.                      : API NUMBER
#==================================================================
~Curve
DEPT    .m                : DEPTH
TVD     .m                : TRUE VERTICAL DEPTH
HRZDISP .m                : HORIZONTAL DISPLACEMENT
ILM .ohm.m                : ILM
ILD .ohm.m                : ILD
RHOB .g/cm3               : RHOB
NPHI .m3/m3               : NPHI
GR .gAPI                  : GR
CALI .in                  : CALI
~Parameter
#==================================================================
#  DEPT              TVD         HRZDISP       ILM          ILD           RHOB         NPHI           GR     CALI
~Ascii
# ...
 2377.74 1821.98 1310.78    2.11    1.88    2.53     0.4   66.22 -999.25
  2377.9 1822.08  1310.9     1.5    1.47    2.57    0.38   69.88 -999.25
 2378.05 1822.18 1311.02    1.58    1.49    2.54     0.4   66.67 -999.25
  2378.2 1822.28 1311.13    1.49    1.49    2.51     0.4   65.97 -999.25
 2378.35 1822.37 1311.25    2.26    1.58    2.55    0.41   66.48 -999.25
 2378.51 1822.47 1311.36    1.62     1.4    2.56    0.39   70.34 -999.25
 2378.66 1822.57 1311.48     1.6    1.15    2.57     0.4    69.2 -999.25
 2378.81 1822.67 1311.59    2.21    1.25    2.51     0.4    67.1 -999.25
 2378.96 1822.77 1311.71    2.08    1.27    2.52    0.41   69.78 -999.25
 2379.12 1822.87 1311.83    2.17     1.4    2.57    0.39   69.59 -999.25
 2379.27 1822.97 1311.94    1.49    1.33     2.5     0.4   65.26 -999.25
 2379.42 1823.07 1312.06    1.22    1.43    2.58     0.4   68.16 -999.25
 2379.57 1823.17 1312.17    1.58     1.5    2.52     0.4   71.18 -999.25
 2379.73 1823.27 1312.29    1.93     1.9    2.53     0.4   70.23 -999.25
 2379.88 1823.37  1312.4    1.58    1.48    2.54    0.41   68.87 -999.25
 2380.03 1823.47 1312.52    1.47    1.23    2.58    0.39   68.63 -999.25
 2380.18 1823.56 1312.64     1.4    1.54    2.53    0.38   69.19 -999.25
 2380.34 1823.66 1312.75    1.57    1.96    2.59    0.39   69.79 -999.25
 2380.49 1823.76 1312.87    1.42    1.96     2.6     0.4   71.15 -999.25
 2380.64 1823.86 1312.98    1.69    1.34    2.56    0.39   65.88 -999.25
 2380.79 1823.96  1313.1    1.35    1.94    2.59     0.4   69.63 -999.25
 2380.95 1824.06 1313.21    1.42    1.92    2.58     0.4   70.33 -999.25
  2381.1 1824.16 1313.33    1.12    1.83    2.56     0.4   65.59 -999.25
 2381.25 1824.26 1313.45    1.83    2.12    2.56    0.39   66.26 -999.25
  2381.4 1824.36 1313.56    1.53    1.62    2.54    0.41   70.41 -999.25
 2381.55 1824.46 1313.68     1.5    1.59    2.56    0.41   65.61 -999.25
 2381.71 1824.56 1313.79    1.89    2.38    2.57    0.41   71.96 -999.25
 2381.86 1824.66 1313.91    2.03    1.46     2.5    0.39   69.99 -999.25
 2382.01 1824.76 1314.02    1.73     1.5    2.51    0.39   70.91 -999.25
 2382.16 1824.85 1314.14    1.52    1.61    2.59    0.38   67.98 -999.25
 2382.32 1824.95 1314.26    1.51    1.43    2.51    0.39   71.54 -999.25
 2382.47 1825.05 1314.37    1.22    1.27    2.53    0.39   68.45 -999.25
 2382.62 1825.15 1314.49    1.38    1.56    2.57    0.38   69.56 -999.25
 2382.77 1825.25  1314.6    1.19    1.37    2.57    0.39   68.36 -999.25
 2382.93 1825.35 1314.72    1.34    1.23    2.57     0.4   68.66 -999.25
 2383.08 1825.45 1314.83    1.94    2.22    2.58    0.39   65.15 -999.25
 2383.23 1825.55 1314.95    1.35    1.33    2.58    0.39   71.33 -999.25
 2383.38 1825.65 1315.07    1.59     1.1    2.59     0.4   65.85 -999.25
 2383.54 1825.75 1315.18    1.59    1.61    2.55    0.39   67.35 -999.25
 2383.69 1825.85  1315.3    1.47    1.73    2.53    0.41   68.39 -999.25
 2383.84 1825.95 1315.41    1.63    2.07    2.55    0.39   69.03 -999.25
 2383.99 1826.04 1315.53    1.09    1.75    2.52     0.4   69.25 -999.25
 2384.15 1826.14 1315.64     1.7    1.25    2.53    0.41   66.78 -999.25
  2384.3 1826.24 1315.76    2.11    1.34    2.59    0.39   67.58 -999.25
 2384.45 1826.34 1315.88    1.53    1.39    2.51    0.38   66.87 -999.25
  2384.6 1826.44 1315.99    2.26    1.48    2.59     0.4   70.54 -999.25
 2384.76 1826.54 1316.11    1.49    1.58    2.54     0.4    69.6 -999.25
 2384.91 1826.64 1316.22    1.34    1.47    2.55    0.39   69.07 -999.25
 2385.06 1826.74 1316.34    1.14    1.91    2.55    0.41   66.09 -999.25
 2385.21 1826.84 1316.45    1.42    1.94    2.57     0.4   66.96 -999.25
 2385.36 1826.94 1316.57    1.52    1.51    2.54    0.38   69.49 -999.25
 2385.52 1827.04 1316.69    1.57    1.21     2.5    0.39    70.2 -999.25
 2385.67 1827.14  1316.8     1.9    1.05    2.53     0.4   70.55 -999.25
 2385.82 1827.23 1316.92    2.09    1.43    2.54    0.38   68.63 -999.25
 2385.97 1827.33 1317.03    2.24     1.6     2.5    0.41   67.47 -999.25
 2386.13 1827.43 1317.15    1.66    1.56    2.52    0.39   66.29 -999.25
 2386.28 1827.53 1317.26    1.49    1.14     2.5     0.4   66.26 -999.25
 2386.43 1827.63 1317.38    1.52    1.51    2.51    0.38   66.36 -999.25
 2386.58 1827.73  1317.5    1.87    1.28    2.54    0.38   66.97 -999.25
 2386.74 1827.83 1317.61    1.57    1.43     2.6     0.4   70.92 -999.25
 2386.89 1827.93 1317.73    1.43    1.45    2.51     0.4    68.8 -999.25
 2387.04 1828.03 1317.84    1.54    1.32    2.56    0.39   66.91 -999.25
 2387.19 1828.13 1317.96    1.51    1.44    2.56    0.41   68.45 -999.25
 2387.35 1828.23 1318.07    1.13    1.25    2.58     0.4   69.78 -999.25
  2387.5 1828.33 1318.19    1.54     2.2    2.52    0.39   66.54 -999.25
 2387.65 1828.42 1318.31     1.8    1.55    2.53     0.4    68.2 -999.25
  2387.8 1828.52 1318.42    1.48    1.83    2.58    0.39    67.6 -999.25
 2387.96 1828.62 1318.54    1.31    1.35    2.52    0.39   69.93 -999.25
 2388.11 1828.72 1318.65    1.55    1.38    2.57    0.39   71.17 -999.25
 2388.26 1828.82 1318.77    1.34    1.57    2.54     0.4   67.71 -999.25
 2388.41 1828.92 1318.88    1.99    1.71    2.57     0.4   70.85 -999.25
 2388.57 1829.02    1319    1.28    1.21    2.58    0.39   68.98 -999.25
 2388.72 1829.12 1319.12    1.27    1.44    2.52     0.4   69.67 -999.25
 2388.87 1829.22 1319.23    1.22    2.31    2.59    0.38   69.37 -999.25
 2389.02 1829.32 1319.35    1.57     2.1    2.56    0.39   65.85 -999.25
 2389.17 1829.42 1319.46    1.82    2.09    2.59    0.39   67.55 -999.25
 2389.33 1829.52 1319.58    1.62    1.43    2.59    0.39   67.76 -999.25
 2389.48 1829.61 1319.69    1.57    1.58    2.55    0.39   68.59 -999.25
 2389.63 1829.71 1319.81    1.72    1.41    2.59    0.39   66.15 -999.25
 2389.78 1829.81 1319.93    1.13     1.6    2.51    0.38   67.07 -999.25
 2389.94 1829.91 1320.04    2.06    1.46    2.59    0.38   69.08 -999.25
 2390.09 1830.01 1320.16    1.89    1.57    2.53    0.39   65.65 -999.25
 2390.24 1830.11 1320.27    1.91    1.39    2.58    0.41   69.88 -999.25
 2390.39 1830.21 1320.39    1.58    1.86    2.58    0.39    65.3 -999.25
 2390.55 1830.31  1320.5    1.52    1.69    2.59    0.39   65.96 -999.25
  2390.7 1830.41 1320.62     1.8    1.37    2.55     0.4   71.66 -999.25
 2390.85 1830.51 1320.74    1.91    1.27    2.53    0.39   71.64 -999.25
    2391 1830.61 1320.85    1.66    1.55    2.56     0.4   70.97 -999.25
 2391.16 1830.71 1320.97    1.86    2.01    2.54    0.39   70.63 -999.25
 2391.31  1830.8 1321.08    1.14    1.69    2.55    0.38      65 -999.25
 2391.46  1830.9  1321.2     1.5    1.48    2.58    0.41   71.55 -999.25
 2391.61    1831 1321.31    1.41    1.67     2.6     0.4   71.09 -999.25
 2391.77  1831.1 1321.43    1.55    1.45    2.53    0.39   70.28 -999.25
 2391.92  1831.2 1321.55    1.93    1.25    2.54    0.41   68.82 -999.25
 2392.07  1831.3 1321.66     1.5    1.52    2.56    0.39   68.12 -999.25
 2392.22  1831.4 1321.78    1.49    1.96    2.54    0.38   67.54 -999.25
 2392.38  1831.5 1321.89    1.61    1.42    2.52    0.41   67.34 -999.25
 2392.53  1831.6 1322.01    1.68     2.1    2.53    0.39   66.61 -999.25
 2392.68  1831.7 1322.12    1.75    1.37    2.54    0.38   69.89 -999.25
 2392.83  1831.8 1322.24    1.22    1.71    2.52    0.38   66.13 -999.25
 2392.98  1831.9 1322.36    2.29    1.45    2.55     0.4   65.65 -999.25
 2393.14 1831.99 1322.47    2.36     1.7    2.57    0.39   69.73 -999.25
 2393.29 1832.09 1322.59    2.13    1.34    2.56    0.41   69.78 -999.25
 2393.44 1832.19  1322.7    1.53    1.33    2.56    0.39   67.41 -999.25
 2393.59 1832.29 1322.82    1.73    1.42    2.56    0.38   65.95 -999.25
 2393.75 1832.39 1322.93    1.42    1.46    2.57    0.38   65.72 -999.25
  2393.9 1832.49 1323.05    2.17    1.53    2.58    0.38   65.64 -999.25
 2394.05 1832.59 1323.17    1.49    1.71     2.6    0.41   70.95 -999.25
  2394.2 1832.69 1323.28    1.97    1.87    2.53    0.39   68.53 -999.25
 2394.36 1832.79  1323.4    1.76    1.55    2.53     0.4    65.4 -999.25
