# LAS format log file from PETREL
# Project units are specified as depth units
#==================================================================
~Version information
VERS.   2.0:
WRAP.   NO:
#==================================================================
~Well
STRT .m           1170.74 :
STOP .m           2999.99 :
STEP .m        0.15240000 :
NULL .        -999.250000 :
COMP.                     : COMPANY
WELL.           WELLB-2   : WELL
FLD.                      : FIELD
LOC.                      : LOCATION
SRVC.                     : SERVICE COMPANY
DATE.  Wednesday, March 31 2010 12:32:42   : DATE
PROV.                     : PROVINCE
UWI.                      : UNIQUE WELL ID
API.                      : API NUMBER
#==================================================================
~Curve
DEPT    .m                : DEPTH
TVD     .m                : TRUE VERTICAL DEPTH
HRZDISP .m                : HORIZONTAL DISPLACEMENT
ILM .ohm.m                : ILM
ILD .ohm.m                : ILD
RHOB .g/cm3               : RHOB
NPHI .m3/m3               : NPHI
GR .gAPI                  : GR
CALI .in                  : CALI
~Parameter
#==================================================================
#  DEPT              TVD         HRZDISP       ILM          ILD           RHOB         NPHI           GR     CALI
~Ascii
# ...
 1288.08  1124.8  473.71    1.86    1.79     2.6    0.39   40.22 -999.25
 1288.24  1124.9  473.83    1.89    1.84    2.51    0.39      39 -999.25
 1288.39    1125  473.94    1.93    1.87    2.55    0.41   37.81 -999.25
 1288.54  1125.1  474.05    1.96    1.89    2.51    0.39   42.69 -999.25
 1288.69  1125.2  474.17    2.03    1.93    2.51    0.41   45.62 -999.25
 1288.85  1125.3  474.28    2.13    1.97    2.51    0.39   44.94 -999.25
    1289  1125.4   474.4     2.2    1.97    2.52    0.39      42 -999.25
 1289.15  1125.5  474.51    2.19       2    2.57     0.4      38 -999.25
  1289.3  1125.6  474.63     2.2       2    2.57    0.38   39.31 -999.25
 1289.46  1125.7  474.74    2.21    1.98     2.5    0.38   46.16 -999.25
 1289.61  1125.8  474.86     2.2    1.96    2.55    0.39   46.78 -999.25
 1289.76  1125.9  474.97    2.16    1.94    2.59     0.4   47.34 -999.25
 1289.91    1126  475.09    2.09    1.93    2.53     0.4   39.56 -999.25
 1290.07  1126.1   475.2    2.07    1.91    2.57    0.39   43.81 -999.25
 1290.22  1126.2  475.32    2.09    1.85    2.56    0.41   42.97 -999.25
 1290.37  1126.3  475.43    2.15    1.84    2.57    0.38   45.66 -999.25
 1290.52  1126.4  475.55     2.2    1.86    2.58     0.4   43.44 -999.25
 1290.68  1126.5  475.66    2.23    1.88    2.54    0.38   46.47 -999.25
 1290.83  1126.6  475.78    2.27    1.88    2.52     0.4   47.03 -999.25
 1290.98  1126.7  475.89    2.32    1.94    2.54     0.4   48.28 -999.25
 1291.13  1126.8  476.01    2.42    1.99    2.58    0.39    45.5 -999.25
 1291.29  1126.9  476.12    2.63    2.06    2.54    0.39   46.56 -999.25
 1291.44    1127  476.24    2.77    2.19    2.53    0.39   43.15 -999.25
 1291.59  1127.1  476.35    2.89    2.37     2.5    0.41   40.44 -999.25
 1291.74  1127.2  476.47    3.07    2.51    2.53    0.39   38.94 -999.25
 1291.89  1127.3  476.58    3.05    2.66    2.51    0.39   41.19 -999.25
 1292.05  1127.4   476.7    3.22    2.79    2.54    0.39    43.4 -999.25
  1292.2  1127.5  476.81    3.16    2.96    2.57     0.4   40.06 -999.25
 1292.35  1127.6  476.93    3.49    3.14     2.5    0.39   34.63 -999.25
  1292.5  1127.7  477.04    3.57    3.38    2.53     0.4   32.97 -999.25
 1292.66  1127.8  477.16    3.71    3.53    2.56    0.39   35.13 -999.25
 1292.81  1127.9  477.27    3.86    3.71    2.56    0.38   39.44 -999.25
 1292.96    1128  477.39    4.03    3.83     2.5    0.41   38.31 -999.25
 1293.11  1128.1   477.5    4.15    3.98    2.56    0.41   37.28 -999.25
 1293.27  1128.2  477.62    4.34    4.12    2.51     0.4   35.75 -999.25
 1293.42  1128.3  477.73    4.47     4.2    2.59     0.4   35.16 -999.25
 1293.57  1128.4  477.85    4.42    4.29     2.5     0.4   37.75 -999.25
 1293.72  1128.5  477.96    4.39    4.35    2.59    0.39   39.34 -999.25
 1293.88  1128.6  478.08    4.38     4.4    2.52    0.39   41.34 -999.25
 1294.03  1128.7  478.19    4.24    4.46     2.5    0.41   37.59 -999.25
 1294.18  1128.8  478.31    4.15    4.49    2.59    0.41   35.41 -999.25
 1294.33  1128.9  478.42    4.04    4.46     2.5     0.4   34.44 -999.25
 1294.49    1129  478.54    4.05    4.33    2.57    0.38   29.53 -999.25
 1294.64  1129.1  478.65    3.97    4.16    2.55    0.41    33.5 -999.25
 1294.79  1129.2  478.77    3.87    3.83    2.58    0.41   34.44 -999.25
 1294.94  1129.3  478.88    3.63    3.51    2.58     0.4   42.09 -999.25
  1295.1  1129.4     479    3.12    3.26    2.55    0.39   41.19 -999.25
 1295.25  1129.5  479.11    2.68    3.04     2.5    0.38   40.75 -999.25
  1295.4  1129.6  479.23    2.48    2.81    2.55     0.4   40.63 -999.25
 1295.55  1129.7  479.34    2.37    2.62    2.56    0.39   43.06 -999.25
  1295.7 1129.65  479.59    2.27    2.45    2.55     0.4   42.09 -999.25
 1295.86 1129.74  479.71    2.16    2.32    2.59    0.41   40.59 -999.25
 1296.01 1129.84  479.82    2.04    2.21    2.53     0.4    36.1 -999.25
 1296.16 1129.94  479.94    1.92    2.02    2.59    0.38   39.87 -999.25
 1296.31 1130.04  480.06    1.76    1.84    2.59    0.39   38.81 -999.25
 1296.47 1130.14  480.17    1.66    1.74    2.52    0.38   40.34 -999.25
 1296.62 1130.24  480.29    1.59    1.69    2.52    0.41   40.31 -999.25
 1296.77 1130.34  480.41    1.56    1.66    2.56    0.39   42.97 -999.25
 1296.92 1130.43  480.52    1.56    1.63    2.57    0.41   40.94 -999.25
 1297.08 1130.53  480.64    1.55    1.61    2.52    0.38   41.03 -999.25
 1297.23 1130.63  480.76    1.56    1.58    2.58     0.4   44.41 -999.25
 1297.38 1130.73  480.87    1.56     1.6    2.52    0.39   45.56 -999.25
 1297.53 1130.83  480.99    1.59    1.67    2.56     0.4   43.31 -999.25
 1297.69 1130.93   481.1    1.64    1.74    2.56    0.39   42.59 -999.25
 1297.84 1131.03  481.22    1.71    1.81    2.53    0.41   43.56 -999.25
 1297.99 1131.12  481.34    1.79    1.85    2.55    0.41   42.03 -999.25
 1298.14 1131.22  481.45    1.94    1.89    2.58     0.4   37.66 -999.25
  1298.3 1131.32  481.57    2.24       2    2.58    0.39   37.13 -999.25
 1298.45 1131.42  481.69    2.59    2.18    2.52     0.4   39.69 -999.25
  1298.6 1131.52   481.8    2.76    2.38    2.52    0.38   36.03 -999.25
 1298.75 1131.62  481.92    2.67    2.52    2.53     0.4   36.69 -999.25
 1298.91 1131.72  482.03    2.62    2.56    2.52    0.39      35 -999.25
 1299.06 1131.81  482.15    2.59    2.54    2.56     0.4    36.5 -999.25
 1299.21 1131.91  482.27    2.57    2.52    2.59     0.4   32.09 -999.25
 1299.36 1132.01  482.38    2.57    2.53    2.56    0.38      30 -999.25
 1299.51 1132.11   482.5    2.74    2.69    2.58     0.4   31.72 -999.25
 1299.67 1132.21  482.62    3.05    2.89     2.5    0.41   32.72 -999.25
 1299.82 1132.31  482.73    3.37    3.04    2.52    0.39   35.97 -999.25
 1299.97  1132.4  482.85     3.7    3.19    2.55    0.39   34.91 -999.25
 1300.12  1132.5  482.96     4.1    3.49    2.58    0.41   35.53 -999.25
 1300.28  1132.6  483.08    4.86    3.81    2.55    0.39   36.53 -999.25
 1300.43  1132.7   483.2    5.29    4.19    2.58    0.39   39.94 -999.25
 1300.58  1132.8  483.31    5.28    4.57    2.53    0.38   42.16 -999.25
 1300.73  1132.9  483.43    5.19     4.6    2.56     0.4   37.44 -999.25
 1300.89    1133  483.55    5.06    4.29    2.59    0.39   35.69 -999.25
 1301.04 1133.09  483.66    4.77    3.91    2.57    0.39   37.81 -999.25
 1301.19 1133.19  483.78    4.23     3.7    2.54    0.39   38.41 -999.25
 1301.34 1133.29  483.89    3.66    3.63    2.52    0.39   38.84 -999.25
  1301.5 1133.39  484.01    3.37    3.63    2.52     0.4   33.28 -999.25
 1301.65 1133.49  484.13    3.28    3.78    2.51    0.39   34.78 -999.25
  1301.8 1133.59  484.24    3.42    4.18    2.51     0.4   36.03 -999.25
 1301.95 1133.69  484.36    3.85    4.57    2.55    0.39   37.28 -999.25
 1302.11 1133.78  484.48    4.06    4.52    2.54     0.4   35.16 -999.25
 1302.26 1133.88  484.59    3.88    4.16     2.6    0.39   35.09 -999.25
 1302.41 1133.98  484.71    3.46    3.44     2.6    0.39   38.34 -999.25
 1302.56 1134.08  484.82    3.07    2.88    2.59    0.39   41.09 -999.25
 1302.72 1134.18  484.94    2.71    2.81    2.52    0.39   38.19 -999.25
 1302.87 1134.28  485.06    2.57    2.94    2.56    0.38   36.38 -999.25
 1303.02 1134.38  485.17    2.79    3.22    2.58    0.38   35.31 -999.25
 1303.17 1134.47  485.29    3.15    3.61    2.58    0.39   36.53 -999.25
 1303.32 1134.57  485.41    3.69    4.18    2.57     0.4   42.28 -999.25
 1303.48 1134.67  485.52    4.68    4.84     2.5    0.38   41.16 -999.25
 1303.63 1134.77  485.64    6.21    5.59    2.57    0.39   41.75 -999.25
 1303.78 1134.87  485.75    7.69    6.63     2.5     0.4   37.31 -999.25
 1303.93 1134.97  485.87    8.71    7.62     2.6    0.39   39.53 -999.25
 1304.09 1135.07  485.99    9.36     8.3    2.56    0.39   38.19 -999.25
 1304.24 1135.16   486.1    9.52    8.52    2.51    0.39   34.81 -999.25
 1304.39 1135.26  486.22    9.34    8.62    2.56    0.41   33.69 -999.25
 1304.54 1135.36  486.34    9.33    8.66    2.54    0.39   37.28 -999.25
  1304.7 1135.46  486.45    9.48    8.77    2.54     0.4   36.19 -999.25
