# LAS format log file from PETREL
# Project units are specified as depth units
#==================================================================
~Version information
VERS.   2.0:
WRAP.   NO:
#==================================================================
~Well
STRT .m           1170.74 :
STOP .m           2999.99 :
STEP .m        0.15240000 :
NULL .        -999.250000 :
COMP.                     : COMPANY
WELL.           WELLB-2   : WELL
FLD.                      : FIELD
LOC.                      : LOCATION
SRVC.                     : SERVICE COMPANY
DATE.  Wednesday, March 31 2010 12:32:42   : DATE
PROV.                     : PROVINCE
UWI.                      : UNIQUE WELL ID
API.                      : API NUMBER
#==================================================================
~Curve
DEPT    .m                : DEPTH
TVD     .m                : TRUE VERTICAL DEPTH
HRZDISP .m                : HORIZONTAL DISPLACEMENT
ILM .ohm.m                : ILM
ILD .ohm.m                : ILD
RHOB .g/cm3               : RHOB
NPHI .m3/m3               : NPHI
GR .gAPI                  : GR
CALI .in                  : CALI
~Parameter
#==================================================================
#  DEPT              TVD         HRZDISP       ILM          ILD           RHOB         NPHI           GR     CALI
~Ascii
# ...
 1405.43  1200.7   563.2    1.23    0.95    2.54    0.39   20.13 -999.25
 1405.59 1200.79  563.32    1.22    0.93    2.59     0.4   20.63 -999.25
 1405.74 1200.89  563.44     1.2    0.92    2.56    0.39   23.48 -999.25
 1405.89 1200.99  563.56    1.19    0.91     2.6    0.39   24.11 -999.25
 1406.04 1201.08  563.67    1.18    0.91    2.57     0.4   23.12 -999.25
 1406.19 1201.18  563.79    1.18    0.91    2.58     0.4    19.7 -999.25
 1406.35 1201.28  563.91    1.19    0.91    2.55     0.4   20.16 -999.25
  1406.5 1201.38  564.02    1.19    0.91    2.57    0.41   20.78 -999.25
 1406.65 1201.47  564.14     1.2    0.91    2.58    0.39   22.88 -999.25
  1406.8 1201.57  564.26     1.2    0.91     2.5     0.4   23.39 -999.25
 1406.96 1201.67  564.38    1.19    0.91    2.53    0.41   25.45 -999.25
 1407.11 1201.77  564.49    1.19    0.91     2.6    0.38   24.47 -999.25
 1407.26 1201.86  564.61    1.19    0.91    2.59     0.4   21.87 -999.25
 1407.41 1201.96  564.73    1.19    0.91    2.53    0.39   18.11 -999.25
 1407.57 1202.06  564.84    1.18    0.91    2.58    0.38   18.08 -999.25
 1407.72 1202.16  564.96    1.18    0.91    2.59    0.41   18.56 -999.25
 1407.87 1202.25  565.08    1.19    0.92    2.55    0.41   17.47 -999.25
 1408.02 1202.35   565.2     1.2    0.92    2.53     0.4   17.94 -999.25
 1408.18 1202.45  565.31    1.22    0.93    2.57     0.4   17.95 -999.25
 1408.33 1202.55  565.43    1.23    0.93    2.56    0.39   20.64 -999.25
 1408.48 1202.64  565.55    1.25    0.94    2.51    0.41   18.55 -999.25
 1408.63 1202.74  565.66    1.25    0.95    2.57    0.38   18.56 -999.25
 1408.79 1202.84  565.78    1.26    0.96    2.58    0.41    19.7 -999.25
 1408.94 1202.94   565.9    1.26    0.97    2.59    0.41      23 -999.25
 1409.09 1203.03  566.02    1.26    0.97     2.6    0.39   24.59 -999.25
 1409.24 1203.13  566.13    1.26    0.97    2.51    0.38   23.36 -999.25
  1409.4 1203.23  566.25    1.26    0.97    2.54    0.41    20.1 -999.25
 1409.55 1203.33  566.37    1.26    0.97     2.6    0.39   22.77 -999.25
  1409.7 1203.42  566.48    1.25    0.97    2.53    0.39   22.34 -999.25
 1409.85 1203.52   566.6    1.24    0.96    2.51    0.41    23.9 -999.25
    1410 1203.62  566.72    1.21    0.96    2.51     0.4   21.83 -999.25
 1410.16 1203.72  566.84     1.2    0.96    2.52    0.38   22.31 -999.25
 1410.31 1203.81  566.95     1.2    0.95    2.57    0.39   22.34 -999.25
 1410.46 1203.91  567.07     1.2    0.94    2.53     0.4   25.06 -999.25
 1410.61 1204.01  567.19    1.19    0.93    2.58     0.4   25.56 -999.25
 1410.77 1204.11   567.3    1.19    0.93    2.54     0.4    25.5 -999.25
 1410.92  1204.2  567.42    1.18    0.93    2.56     0.4   24.39 -999.25
 1411.07  1204.3  567.54    1.18    0.92     2.6    0.38   23.41 -999.25
 1411.22  1204.4  567.66    1.18    0.92     2.6    0.39   22.36 -999.25
 1411.38  1204.5  567.77    1.17    0.92    2.53    0.41   20.72 -999.25
 1411.53 1204.59  567.89    1.17    0.92    2.54    0.38   21.78 -999.25
 1411.68 1204.69  568.01    1.17    0.92    2.51    0.39    24.5 -999.25
 1411.83 1204.79  568.13    1.18    0.92    2.57     0.4   25.48 -999.25
 1411.99 1204.89  568.24    1.18    0.93    2.52     0.4   24.89 -999.25
 1412.14 1204.98  568.36    1.18    0.93    2.58    0.38   23.69 -999.25
 1412.29 1205.08  568.48    1.18    0.93    2.52    0.39   24.63 -999.25
 1412.44 1205.18  568.59    1.18    0.94     2.6     0.4   24.56 -999.25
  1412.6 1205.28  568.71    1.19    0.94    2.56    0.38   24.58 -999.25
 1412.75 1205.37  568.83    1.18    0.93    2.59     0.4   23.02 -999.25
  1412.9 1205.47  568.95    1.17    0.92    2.55    0.39   24.09 -999.25
 1413.05 1205.57  569.06    1.16    0.92    2.53    0.39   22.86 -999.25
 1413.21 1205.67  569.18    1.14    0.91    2.56    0.41   23.42 -999.25
 1413.36 1205.76   569.3    1.13    0.91    2.53    0.41   21.22 -999.25
 1413.51 1205.86  569.41    1.13     0.9    2.54    0.38   21.33 -999.25
 1413.66 1205.96  569.53    1.12     0.9    2.55    0.39   20.86 -999.25
 1413.81 1206.06  569.65    1.13     0.9    2.54    0.39   22.47 -999.25
 1413.97 1206.15  569.77    1.14    0.91    2.55    0.38   22.47 -999.25
 1414.12 1206.25  569.88    1.15    0.91    2.53    0.39    18.7 -999.25
 1414.27 1206.35     570    1.15    0.91    2.53    0.39   20.14 -999.25
 1414.42 1206.45  570.12    1.15    0.91     2.5     0.4   19.06 -999.25
 1414.58 1206.54  570.23    1.14     0.9    2.52    0.39   20.61 -999.25
 1414.73 1206.64  570.35    1.12    0.89    2.53    0.41   19.19 -999.25
 1414.88 1206.74  570.47     1.1    0.88    2.57    0.39   23.42 -999.25
 1415.03 1206.84  570.59    1.09    0.88    2.51    0.38   23.41 -999.25
 1415.19 1206.93   570.7    1.08    0.88    2.52    0.39    22.9 -999.25
 1415.34 1207.03  570.82    1.09    0.88     2.6    0.41   21.39 -999.25
 1415.49 1207.13  570.94     1.1    0.89     2.6    0.39   25.59 -999.25
 1415.64 1207.23  571.05    1.12     0.9    2.51     0.4   27.63 -999.25
  1415.8 1207.32  571.17    1.13    0.91    2.53    0.39   28.22 -999.25
 1415.95 1207.42  571.29    1.14    0.91    2.52     0.4   24.01 -999.25
  1416.1 1207.52  571.41    1.14     0.9    2.58     0.4   21.45 -999.25
 1416.25 1207.62  571.52    1.13     0.9    2.53    0.41   22.47 -999.25
 1416.41 1207.71  571.64    1.11    0.89     2.5    0.38   26.67 -999.25
 1416.56 1207.81  571.76    1.09    0.89    2.56     0.4   27.76 -999.25
 1416.71 1207.91  571.87    1.08    0.89    2.57    0.39   26.69 -999.25
 1416.86 1208.01  571.99     1.1     0.9     2.6     0.4   25.06 -999.25
 1417.02  1208.1  572.11    1.12    0.91    2.57    0.38    24.5 -999.25
 1417.17  1208.2  572.23    1.15    0.91     2.5    0.39   26.63 -999.25
 1417.32  1208.3  572.34    1.16    0.92    2.53     0.4   26.72 -999.25
 1417.47  1208.4  572.46    1.16    0.92    2.59    0.39    28.8 -999.25
 1417.62 1208.49  572.58    1.15    0.92    2.53    0.38   24.05 -999.25
 1417.78 1208.59  572.69    1.12    0.92    2.53     0.4    23.5 -999.25
 1417.93 1208.69  572.81     1.1     0.9    2.52    0.39   23.47 -999.25
 1418.08 1208.79  572.93     1.1    0.89    2.55    0.39   26.55 -999.25
 1418.23 1208.88  573.05     1.1    0.89    2.53    0.39   26.53 -999.25
 1418.39 1208.98  573.16     1.1    0.89     2.6     0.4   25.52 -999.25
 1418.54 1209.08  573.28    1.11    0.89    2.52     0.4   25.59 -999.25
 1418.69 1209.18   573.4    1.13    0.89    2.56    0.38   25.16 -999.25
 1418.84 1209.27  573.51    1.14    0.91    2.59    0.38   25.72 -999.25
    1419 1209.37  573.63    1.16    0.92    2.54    0.41   23.03 -999.25
 1419.15 1209.47  573.75    1.17    0.93    2.56    0.41   25.14 -999.25
  1419.3 1209.57  573.87    1.17    0.93    2.53    0.39   23.95 -999.25
 1419.45 1209.59  574.05    1.17    0.93    2.57    0.38   26.47 -999.25
 1419.61 1209.68  574.16    1.16    0.92    2.59    0.41   25.97 -999.25
 1419.76 1209.78  574.28    1.15    0.92    2.58     0.4   27.11 -999.25
 1419.91 1209.88   574.4    1.14    0.92    2.58    0.39   26.75 -999.25
 1420.06 1209.97  574.52    1.15    0.92    2.51    0.39   25.69 -999.25
 1420.22 1210.07  574.64    1.16    0.93    2.56     0.4   24.11 -999.25
 1420.37 1210.17  574.75    1.18    0.94    2.59    0.39    25.2 -999.25
 1420.52 1210.26  574.87     1.2    0.94    2.58     0.4   23.59 -999.25
 1420.67 1210.36  574.99    1.21    0.95    2.56    0.38   23.41 -999.25
 1420.83 1210.46  575.11    1.23    0.96    2.51    0.41   20.75 -999.25
 1420.98 1210.55  575.22    1.23    0.98    2.52     0.4   22.25 -999.25
 1421.13 1210.65  575.34    1.24    0.98    2.51    0.38   24.06 -999.25
 1421.28 1210.75  575.46    1.24    0.99    2.54    0.39   24.02 -999.25
 1421.43 1210.84  575.58    1.26       1    2.52    0.38   24.67 -999.25
 1421.59 1210.94   575.7    1.27       1    2.53     0.4      23 -999.25
 1421.74 1211.04  575.81    1.27       1    2.56    0.39   20.88 -999.25
 1421.89 1211.13  575.93    1.28       1    2.55    0.39   21.28 -999.25
 1422.04 1211.23  576.05    1.27       1    2.54     0.4   19.67 -999.25
