# LAS format log file from PETREL
# Project units are specified as depth units
#==================================================================
~Version information
VERS.   2.0:
WRAP.   NO:
#==================================================================
~Well
STRT .m           3250.08 :
STOP .m           4804.87 :
STEP .m            0.1524 :
NULL .        -999.250000 :
COMP.                     : COMPANY
WELL.            WELLB-32 : WELL
FLD.                      : FIELD
LOC.                      : LOCATION
SRVC.                     : SERVICE COMPANY
DATE.  Wednesday, March 31 2010 12:32:47   : DATE
PROV.                     : PROVINCE
UWI.                      : UNIQUE WELL ID
API.                      : API NUMBER
#==================================================================
~Curve
DEPT .m                   : DEPTH
TVD  .m                   : TRUE VERTICAL DEPTH
HRZDISP .m                : HORIZONTAL DISPLACEMENT
ILM .ohm.m                : ILM
ILD .ohm.m                : ILD
RHOB .g/cm3               : RHOB
NPHI .m3/m3               : NPHI
GR .gAPI                  : GR
CALI .in                  : CALI
~Parameter
#==================================================================
#DEPT    TVD     HRZDISP      ILM        ILD        RHOB       NPHI       GR         CALI
~Ascii
# ...
 3266.85 1874.56 2189.36 -999.25 -999.25    2.02    0.53   49.33    9.53
    3267 1874.57 2189.52 -999.25 -999.25       2    0.53   48.44    9.54
 3267.15 1874.59 2189.67 -999.25 -999.25    2.02    0.53   48.79    9.54
  3267.3 1874.61 2189.82 -999.25 -999.25    2.04    0.52   48.24    9.55
 3267.46 1874.63 2189.97 -999.25 -999.25    2.07    0.54    49.6    9.53
 3267.61 1874.65 2190.12 -999.25 -999.25    2.08    0.55   45.51    9.54
 3267.76 1874.67 2190.27 -999.25 -999.25    2.06    0.55   47.31    9.54
 3267.91 1874.69 2190.42 -999.25 -999.25    2.04    0.52   47.27    9.54
 3268.07  1874.7 2190.58 -999.25 -999.25    2.03     0.5   51.15    9.53
 3268.22 1874.72 2190.73 -999.25 -999.25    2.02    0.52   42.89    9.56
 3268.37 1874.74 2190.88 -999.25 -999.25    2.04    0.56   45.22    9.54
 3268.52 1874.76 2191.03 -999.25 -999.25    2.04    0.57   45.54    9.57
 3268.68 1874.78 2191.18 -999.25 -999.25    2.04    0.56   45.31    9.57
 3268.83  1874.8 2191.33 -999.25 -999.25    2.03    0.54   45.64    9.56
 3268.98 1874.82 2191.48 -999.25 -999.25    2.01    0.51   44.77    9.59
 3269.13 1874.83 2191.63 -999.25 -999.25    2.02    0.53   45.45     9.6
 3269.28 1874.85 2191.79 -999.25 -999.25    2.04    0.52   47.38     9.6
 3269.44 1874.87 2191.94 -999.25 -999.25    2.04    0.57   47.62    9.59
 3269.59 1874.89 2192.09 -999.25 -999.25    2.02    0.54   47.41     9.6
 3269.74 1874.91 2192.24 -999.25 -999.25    2.01    0.56   49.02    9.58
 3269.89 1874.93 2192.39 -999.25 -999.25    2.02    0.56   47.33     9.6
 3270.05 1874.95 2192.54 -999.25 -999.25    2.04    0.57   50.24     9.6
  3270.2 1874.96 2192.69 -999.25 -999.25    2.03    0.56    47.2    9.59
 3270.35 1874.98 2192.84 -999.25 -999.25    2.06    0.55   47.93    9.57
  3270.5    1875    2193 -999.25 -999.25    2.08    0.56   49.09    9.57
 3270.66 1875.02 2193.15 -999.25 -999.25    2.22    0.56   44.13    9.52
 3270.81 1875.04  2193.3 -999.25 -999.25    2.28    0.52   37.51    9.37
 3270.96 1875.06 2193.45 -999.25 -999.25    2.17     0.5   38.11    9.42
 3271.11 1875.08  2193.6 -999.25    0.12    2.33    0.52   44.19     9.5
 3271.27 1875.09 2193.75 -999.25    0.11    2.19    0.53   54.29   10.16
 3271.42 1875.11  2193.9   109.6     0.1    2.15    0.54   58.85   11.75
 3271.57 1875.13 2194.06    6.89    0.11    2.15    0.47   68.47   12.81
 3271.72 1875.15 2194.21    5.15     0.1    2.21    0.47   67.83   13.16
 3271.88 1875.17 2194.36    2.86    3.29    2.26    0.44   68.26   13.33
 3272.03 1875.19 2194.51     2.8   28.57    2.28    0.46   68.18   12.79
 3272.18 1875.21 2194.66    2.94   14.59    2.27    0.44   68.84   13.59
 3272.33 1875.22 2194.81    2.94     7.6    2.28    0.45   69.34   13.05
 3272.49 1875.24 2194.96    6.85    0.81    2.28    0.46   67.48      14
 3272.64 1875.26 2195.11    7.53    0.82    2.29    0.44   68.14   15.23
 3272.79 1875.28 2195.27   11.66    0.92    2.29    0.46    69.1   15.66
 3272.94  1875.3 2195.42    6.48    0.96    2.29    0.43   68.79   15.24
 3273.09 1875.32 2195.57    5.89    0.93    2.29    0.45   67.86   14.87
 3273.25 1875.34 2195.72    4.23    0.78    2.29    0.44   66.18   13.83
  3273.4 1875.35 2195.87    2.24    0.77    2.28    0.44   66.54   13.79
 3273.55 1875.37 2196.02    2.12    0.78    2.27    0.43   63.53   14.01
  3273.7 1875.39 2196.17    2.76    0.66    2.27    0.44   57.66   13.72
 3273.86 1875.41 2196.33    5.94    0.62    2.25    0.43   56.46   13.86
 3274.01 1875.43 2196.48   16.39    0.49    2.24    0.42   63.29   13.97
 3274.16 1875.45 2196.63   11.05    0.48    2.23    0.42   61.87   14.04
 3274.31 1875.47 2196.78    9.06    0.49    2.24    0.45   60.08   14.49
 3274.47 1875.48 2196.93   10.02    0.69    2.25    0.45   62.13    16.9
 3274.62  1875.5 2197.08   10.97    0.83    2.26    0.47   59.07   16.97
 3274.77 1875.52 2197.23    3.76    0.82    2.25    0.44   57.23   15.25
 3274.92 1875.54 2197.38    8.41    1.25    2.25    0.44    59.2   15.12
 3275.08 1875.56 2197.54    6.97    1.14    2.24    0.44    57.3   13.41
 3275.23 1875.58 2197.69    4.54    0.55    2.23    0.47   56.85   14.27
 3275.38  1875.6 2197.84  130.43    0.63    2.22    0.48   58.86   14.74
 3275.53 1875.62 2197.99   68.82    0.61    2.22    0.45   58.03   15.05
 3275.69 1875.63 2198.14    2.59    0.59    2.26    0.42   56.41   15.14
 3275.84 1875.65 2198.29    2.59    0.59    2.28     0.4   56.39   15.39
 3275.99 1875.67 2198.44    3.14    0.59    2.29    0.43   56.04   15.29
 3276.14 1875.69  2198.6    1.66    0.63    2.27    0.44   57.26    15.9
  3276.3 1875.71 2198.75     1.4    0.57    2.27    0.46    55.1   16.17
 3276.45 1875.73  2198.9    1.58    0.56    2.27    0.46   55.54   16.52
  3276.6 1875.75 2199.05    1.51    0.68    2.25    0.45    57.2   16.16
 3276.75 1875.76  2199.2    2.03    0.55    2.25    0.43   57.57   16.19
  3276.9 1875.78 2199.35    2.18    0.55    2.25    0.44   51.01   16.35
 3277.06  1875.8  2199.5    1.65    0.74    2.26    0.46   52.87   14.51
 3277.21 1875.82 2199.65    1.65    0.74    2.27    0.46   59.13   14.19
 3277.36 1875.84 2199.81    1.59    0.76    2.28    0.44   57.57    14.7
 3277.51 1875.86 2199.96     1.5     0.8    2.28    0.41   57.01   16.41
 3277.67 1875.88 2200.11    1.33    0.87    2.29     0.4   58.98   16.71
 3277.82 1875.89 2200.26    1.25     0.9    2.29    0.45   59.56    17.2
 3277.97 1875.91 2200.41    1.36    0.88    2.29    0.48   62.47   16.74
 3278.12 1875.93 2200.56    1.38    0.82    2.28    0.48   59.28   18.42
 3278.28 1875.95 2200.71    1.33    0.85    2.28    0.43    62.4    19.8
 3278.43 1875.97 2200.87    1.43    0.81    2.27    0.43   64.82   17.51
 3278.58 1875.99 2201.02    1.14    0.73    2.25    0.43   61.94    16.1
 3278.73 1876.01 2201.17    0.94    0.98    2.27    0.42   61.53   16.63
 3278.89 1876.02 2201.32    0.98     1.2     2.3    0.41   61.54   15.63
 3279.04 1876.04 2201.47    1.03    1.19     2.3    0.41   66.86   15.52
 3279.19 1876.06 2201.62    1.07     1.3    2.28    0.43   66.25   16.02
 3279.34 1876.08 2201.77    1.07     1.3    2.26    0.44   63.99   14.46
  3279.5  1876.1 2201.92    1.15    1.32    2.24    0.44   62.54   14.78
 3279.65 1876.12 2202.08    1.15    1.68    2.23    0.44   62.85   14.59
  3279.8 1876.14 2202.23    1.24    2.28    2.24    0.46   64.38   14.67
 3279.95 1876.15 2202.38    1.33    1.76    2.25    0.46   65.77   14.64
 3280.11 1876.12 2202.54    1.32    1.65    2.23    0.45   67.25   15.25
 3280.26 1876.13 2202.69    1.21    1.38    2.27    0.42   65.41   15.97
 3280.41 1876.15 2202.84    1.17    1.41    2.31    0.43   67.99   15.73
 3280.56 1876.17 2202.99    1.09    1.38    2.36    0.42   59.85   13.49
 3280.71 1876.19 2203.14    1.05    2.14    2.41    0.42   58.83   12.85
 3280.87 1876.21 2203.29       1    3.24    2.52    0.37   53.69    13.8
 3281.02 1876.22 2203.44       1    3.88    2.65    0.35   53.07   14.54
 3281.17 1876.24  2203.6    1.34   27.35    2.75    0.32   52.69   13.89
 3281.32 1876.26 2203.75    1.34   34.13    2.79    0.31   42.85   14.63
 3281.48 1876.28  2203.9    2.04   47.64    2.79    0.26   40.45   14.26
 3281.63 1876.29 2204.05     2.4   40.15    2.78    0.21    38.9   14.14
 3281.78 1876.31  2204.2    3.57   49.14    2.79    0.17   37.03   14.23
 3281.93 1876.33 2204.35     4.8   46.38    2.79    0.16   39.17   15.02
 3282.09 1876.35  2204.5    8.62   32.51    2.77    0.15   41.29   15.39
 3282.24 1876.37 2204.66   11.15   64.04    2.73    0.14   42.29   15.02
 3282.39 1876.38 2204.81   17.34 -999.25    2.71    0.13    38.5    15.6
 3282.54  1876.4 2204.96   25.47 -999.25     2.7    0.14   37.86   15.02
  3282.7 1876.42 2205.11   31.16 -999.25     2.7    0.16   39.42    14.7
 3282.85 1876.44 2205.26   31.15 -999.25     2.7    0.17   35.73   14.88
    3283 1876.45 2205.41   25.47 -999.25    2.68    0.19   39.52   14.17
 3283.15 1876.47 2205.56   20.96 -999.25    2.68    0.21      44   13.98
 3283.31 1876.49 2205.72    17.9 -999.25    2.65    0.24   45.13   13.76
 3283.46 1876.51 2205.87   26.79 -999.25    2.63    0.24   53.62   13.55
