# LAS format log file from PETREL
# Project units are specified as depth units
#==================================================================
~Version information
VERS.   2.0:
WRAP.   NO:
#==================================================================
~Well
STRT .m           3250.08 :
STOP .m           4804.87 :
STEP .m            0.1524 :
NULL .        -999.250000 :
COMP.                     : COMPANY
WELL.            WELLB-32 : WELL
FLD.                      : FIELD
LOC.                      : LOCATION
SRVC.                     : SERVICE COMPANY
DATE.  Wednesday, March 31 2010 12:32:47   : DATE
PROV.                     : PROVINCE
UWI.                      : UNIQUE WELL ID
API.                      : API NUMBER
#==================================================================
~Curve
DEPT .m                   : DEPTH
TVD  .m                   : TRUE VERTICAL DEPTH
HRZDISP .m                : HORIZONTAL DISPLACEMENT
ILM .ohm.m                : ILM
ILD .ohm.m                : ILD
RHOB .g/cm3               : RHOB
NPHI .m3/m3               : NPHI
GR .gAPI                  : GR
CALI .in                  : CALI
~Parameter
#==================================================================
#DEPT    TVD     HRZDISP      ILM        ILD        RHOB       NPHI       GR         CALI
~Ascii
# ...
 3468.01 1895.94 2389.39 -999.25 -999.25    2.02    0.34    44.2   11.81
 3468.17 1895.95 2389.54 -999.25 -999.25    2.01    0.34   42.81   11.05
 3468.32 1895.97 2389.69 -999.25 -999.25       2    0.35   44.91   10.64
 3468.47 1895.98 2389.84 -999.25 -999.25       2    0.35    45.2   10.64
 3468.62    1896    2390 -999.25 -999.25    2.02    0.35   47.18   10.68
 3468.78 1896.01 2390.15 -999.25 -999.25    2.02    0.34   41.99   10.68
 3468.93 1896.03  2390.3 -999.25 -999.25    2.01    0.34   39.12   10.37
 3469.08 1896.04 2390.45 -999.25 -999.25    1.99    0.34   41.71    9.88
 3469.23 1896.05  2390.6 -999.25 -999.25    1.99    0.37      41   10.39
 3469.39 1896.07 2390.75 -999.25 -999.25    1.98    0.36   40.85   10.84
 3469.54 1896.08 2390.91 -999.25 -999.25    1.99    0.37   38.42   11.09
 3469.69  1896.1 2391.06 -999.25 -999.25    1.99    0.34   38.78   11.03
 3469.84 1896.11 2391.21 -999.25 -999.25    2.01    0.36   39.93   10.98
    3470 1896.13 2391.36 -999.25 -999.25    2.02    0.37   41.17   10.99
 3470.15 1896.14 2391.51 -999.25 -999.25    2.02    0.38   40.87   10.87
  3470.3 1896.16 2391.66 -999.25 -999.25    2.03    0.38   40.74   10.57
 3470.45 1896.17 2391.82 -999.25 -999.25    2.02    0.35   39.35   10.43
 3470.61 1896.19 2391.97 -999.25 -999.25    2.02    0.34   42.91   10.42
 3470.76  1896.2 2392.12 -999.25 -999.25    2.02    0.33   46.01   10.45
 3470.91 1896.22 2392.27 -999.25 -999.25    2.02    0.34   39.87   10.57
 3471.06 1896.23 2392.42 -999.25 -999.25    2.03    0.35   38.55    10.8
 3471.21 1896.25 2392.57 -999.25 -999.25    2.03    0.34    36.8   10.81
 3471.37 1896.26 2392.73 -999.25 -999.25    2.04    0.32   42.31    10.7
 3471.52 1896.28 2392.88 -999.25 -999.25    2.04     0.3   41.14   10.59
 3471.67 1896.29 2393.03 -999.25 -999.25    2.04    0.31   39.62    10.5
 3471.82 1896.31 2393.18 -999.25 -999.25    2.03    0.33   39.09   10.04
 3471.98 1896.32 2393.33 -999.25 -999.25    2.02    0.34   37.96   10.06
 3472.13 1896.34 2393.48 -999.25 -999.25    2.01    0.33   39.59   10.36
 3472.28 1896.35 2393.64 -999.25 -999.25    2.01    0.32   35.78   10.67
 3472.43 1896.37 2393.79 -999.25 -999.25       2    0.32   35.84   10.81
 3472.59 1896.38 2393.94 -999.25 -999.25    2.01    0.32   37.57   10.89
 3472.74  1896.4 2394.09 -999.25 -999.25    2.02    0.32   39.36    10.8
 3472.89 1896.41 2394.24 -999.25 -999.25    2.04    0.31   40.36   10.52
 3473.04 1896.43 2394.39 -999.25 -999.25    2.04     0.3   37.56   10.52
  3473.2 1896.44 2394.55 -999.25 -999.25    2.03    0.31   40.31   10.25
 3473.35 1896.46  2394.7 -999.25 -999.25    2.03    0.31   38.27   10.16
  3473.5 1896.47 2394.85 -999.25 -999.25    2.03    0.31   38.65   10.34
 3473.65 1896.49    2395 -999.25 -999.25    2.03    0.32   42.77   10.46
 3473.81  1896.5 2395.15 -999.25 -999.25    2.03    0.32   40.95   10.54
 3473.96 1896.52  2395.3 -999.25 -999.25    2.03    0.31   37.17   10.82
 3474.11 1896.53 2395.46 -999.25 -999.25    2.04    0.31   39.83   10.88
 3474.26 1896.55 2395.61 -999.25 -999.25    2.04    0.31   39.66   10.88
 3474.42 1896.56 2395.76 -999.25 -999.25    2.04    0.31   39.62   10.54
 3474.57 1896.58 2395.91 -999.25 -999.25    2.03    0.31   44.25   10.35
 3474.72 1896.59 2396.06 -999.25 -999.25    2.02    0.31   35.22   10.31
 3474.87 1896.61 2396.21 -999.25 -999.25    2.02    0.33   39.56   10.24
 3475.02 1896.62 2396.37 -999.25 -999.25    2.02    0.35    39.7   10.24
 3475.18 1896.64 2396.52 -999.25 -999.25    2.02    0.34    41.9   10.56
 3475.33 1896.65 2396.67 -999.25 -999.25    2.03    0.31   43.14   10.63
 3475.48 1896.67 2396.82 -999.25 -999.25    2.03     0.3   45.26   10.67
 3475.63 1896.68 2396.97 -999.25 -999.25    2.04    0.31   47.47   10.65
 3475.79  1896.7 2397.12 -999.25 -999.25    2.04    0.34   47.46   10.48
 3475.94 1896.71 2397.28 -999.25 -999.25    2.04    0.35   48.35   10.27
 3476.09 1896.73 2397.43 -999.25 -999.25    2.03    0.36   47.81   10.41
 3476.24 1896.74 2397.58 -999.25 -999.25    2.02    0.37   47.62   10.54
  3476.4 1896.76 2397.73 -999.25 -999.25    2.02    0.37   51.43   10.64
 3476.55 1896.77 2397.88 -999.25 -999.25    2.03    0.35   51.07   10.78
  3476.7 1896.79 2398.03 -999.25 -999.25    2.05    0.35   52.35   10.84
 3476.85  1896.8 2398.19 -999.25 -999.25    2.06    0.34   50.39   10.79
 3477.01 1896.82 2398.34 -999.25 -999.25    2.03    0.37   48.31   10.15
 3477.16 1896.83 2398.49 -999.25 -999.25       2    0.38   40.72   10.06
 3477.31 1896.85 2398.64 -999.25 -999.25    1.99    0.39   40.91   10.16
 3477.46 1896.86 2398.79 -999.25 -999.25       2    0.38   40.73    10.1
 3477.62 1896.88 2398.94 -999.25 -999.25    2.02    0.37    45.9   10.16
 3477.77 1896.89  2399.1 -999.25 -999.25    2.03    0.36   45.14   10.45
 3477.92 1896.91 2399.25 -999.25 -999.25    2.05    0.37   45.01   10.78
 3478.07 1896.92  2399.4 -999.25 -999.25    2.06    0.36   43.34   10.85
 3478.23 1896.94 2399.55 -999.25 -999.25    2.07    0.34   42.94   10.89
 3478.38 1896.95  2399.7 -999.25 -999.25    2.06    0.32   38.76   10.79
 3478.53 1896.97 2399.85 -999.25 -999.25    2.05    0.31   40.69   10.57
 3478.68 1896.98 2400.01 -999.25 -999.25    2.02     0.3   43.37   10.39
 3478.83    1897 2400.16 -999.25 -999.25    2.01     0.3   41.03    9.78
 3478.99 1897.01 2400.31 -999.25 -999.25    1.99    0.32   45.45    9.84
 3479.14 1897.03 2400.46 -999.25 -999.25    1.99    0.37    43.3   10.14
 3479.29 1897.04 2400.61 -999.25 -999.25       2    0.38   48.53   10.59
 3479.44 1897.06 2400.76 -999.25 -999.25    2.08    0.39   46.13   10.84
  3479.6 1897.07 2400.92 -999.25 -999.25    2.15    0.37   56.88   10.81
 3479.75 1897.09 2401.07 -999.25 -999.25    2.24     0.4   57.35   10.67
  3479.9  1897.1 2401.22 3097.63 -999.25     2.3    0.41    59.1   10.25
 3480.05  1897.1 2401.37 3121.97 -999.25    2.34    0.41   56.97   10.34
 3480.21 1897.11 2401.52 -999.25 -999.25    2.33    0.41   55.83   10.35
 3480.36 1897.13 2401.67 -999.25 -999.25    2.32     0.4   55.57   10.39
 3480.51 1897.14 2401.83 -999.25 -999.25    2.29    0.38   55.19   10.57
 3480.66 1897.16 2401.98 -999.25 -999.25    2.25    0.36   50.85   10.23
 3480.82 1897.17 2402.13 -999.25 -999.25    2.19    0.34   46.65   10.39
 3480.97 1897.19 2402.28 -999.25 -999.25    2.15    0.34   45.16   10.59
 3481.12  1897.2 2402.43 -999.25 -999.25    2.13    0.33   44.26   10.31
 3481.27 1897.22 2402.58 -999.25 -999.25    2.12    0.32   46.31   10.43
 3481.43 1897.23 2402.74 -999.25 -999.25    2.12    0.33   41.31    10.5
 3481.58 1897.25 2402.89 -999.25 -999.25    2.13    0.34    42.6   10.31
 3481.73 1897.26 2403.04 -999.25 -999.25    2.13    0.36   42.28    9.64
 3481.88 1897.28 2403.19 -999.25 -999.25    2.12    0.36   41.15    9.34
 3482.04 1897.29 2403.34 -999.25 -999.25    2.08    0.38    42.3    9.31
 3482.19 1897.31 2403.49 -999.25 -999.25    2.05    0.37    41.7    9.42
 3482.34 1897.32 2403.65 -999.25 -999.25    2.03    0.37   35.81    9.61
 3482.49 1897.34  2403.8 -999.25 -999.25    2.01    0.36   34.17    9.93
 3482.64 1897.35 2403.95 -999.25 -999.25       2    0.35   31.95   10.24
  3482.8 1897.36  2404.1 -999.25 -999.25       2    0.34   30.79   10.27
 3482.95 1897.38 2404.25 -999.25 -999.25    2.01    0.33   36.54   10.64
  3483.1 1897.39  2404.4 -999.25 -999.25    2.02    0.33   33.99   10.84
 3483.25 1897.41 2404.56 -999.25 -999.25    2.04    0.33   36.65   10.95
 3483.41 1897.42 2404.71 -999.25 -999.25    2.05    0.33   38.57   10.88
 3483.56 1897.44 2404.86 -999.25 -999.25    2.06    0.36      33   10.69
 3483.71 1897.45 2405.01 -999.25 -999.25    2.05    0.37   35.65   10.55
 3483.86 1897.47 2405.16 -999.25 -999.25    2.03    0.35   32.18   10.46
 3484.02 1897.48 2405.31 -999.25 -999.25    2.02    0.32   35.59   10.53
 3484.17  1897.5 2405.47 -999.25 -999.25    2.04    0.31   32.18    10.6
 3484.32 1897.51 2405.62 -999.25 -999.25    2.06     0.3   34.15   10.65
 3484.47 1897.53 2405.77 -999.25 -999.25    2.07    0.28   33.62   10.58
 3484.63 1897.54 2405.92 -999.25 -999.25    2.07    0.28   29.76    9.57
