# LAS format log file from PETREL
# Project units are specified as depth units
#==================================================================
~Version information
VERS.   2.0:
WRAP.   NO:
#==================================================================
~Well
STRT .m           3250.08 :
STOP .m           4804.87 :
STEP .m            0.1524 :
NULL .        -999.250000 :
COMP.                     : COMPANY
WELL.            WELLB-32 : WELL
FLD.                      : FIELD
LOC.                      : LOCATION
SRVC.                     : SERVICE COMPANY
DATE.  Wednesday, March 31 2010 12:32:47   : DATE
PROV.                     : PROVINCE
UWI.                      : UNIQUE WELL ID
API.                      : API NUMBER
#==================================================================
~Curve
DEPT .m                   : DEPTH
TVD  .m                   : TRUE VERTICAL DEPTH
HRZDISP .m                : HORIZONTAL DISPLACEMENT
ILM .ohm.m                : ILM
ILD .ohm.m                : ILD
RHOB .g/cm3               : RHOB
NPHI .m3/m3               : NPHI
GR .gAPI                  : GR
CALI .in                  : CALI
~Parameter
#==================================================================
#DEPT    TVD     HRZDISP      ILM        ILD        RHOB       NPHI       GR         CALI
~Ascii
# ...
 3367.43 1885.63 2289.34   18.26   24.15    1.93    0.41   75.12    9.96
 3367.58 1885.64 2289.49   17.14   23.02    1.94     0.4   72.35   10.22
 3367.74 1885.66 2289.64   26.05    26.8    1.94    0.38   69.71    9.87
 3367.89 1885.68 2289.79   98.48   41.21    1.92    0.37   66.89    9.66
 3368.04 1885.69 2289.94   98.53   89.15    1.89    0.36   64.64    9.54
 3368.19 1885.71 2290.09 -999.25 -999.25    1.88    0.37   65.87    9.42
 3368.34 1885.73 2290.24 -999.25 -999.25    1.88    0.39   60.65    9.45
  3368.5 1885.74  2290.4 -999.25 -999.25    1.89    0.41   60.35    9.76
 3368.65 1885.76 2290.55 -999.25 -999.25    1.91    0.42   62.14    9.99
  3368.8 1885.78  2290.7 -999.25 -999.25    1.94    0.39   60.55     9.9
 3368.95 1885.79 2290.85 -999.25 -999.25    1.95    0.36   61.88    9.88
 3369.11 1885.81    2291 -999.25 -999.25    1.95    0.34   57.36    9.73
 3369.26 1885.83 2291.15 -999.25 -999.25    1.94    0.37   56.91    9.47
 3369.41 1885.84  2291.3 -999.25 -999.25    1.93    0.38   56.53    9.36
 3369.56 1885.86 2291.46 -999.25 -999.25    1.93    0.38   59.48    9.56
 3369.72 1885.88 2291.61 -999.25 -999.25    1.93    0.36   62.35    9.85
 3369.87  1885.9 2291.76 -999.25 -999.25    1.93    0.36   60.93    9.88
 3370.02 1885.91 2291.91 -999.25 -999.25    1.93    0.35   59.24    9.83
 3370.17 1885.93 2292.06 -999.25 -999.25    1.92    0.37   57.25    9.48
 3370.33 1885.95 2292.21 -999.25  130.26     1.9    0.38   58.36    9.23
 3370.48 1885.96 2292.36 -999.25  205.61    1.89    0.39   50.26    9.49
 3370.63 1885.98 2292.52 -999.25  205.72    1.89    0.37   44.85    9.78
 3370.78    1886 2292.67 -999.25  157.66    1.91    0.35    51.4    9.92
 3370.94 1886.01 2292.82 -999.25  222.49    1.92    0.33   46.54    9.98
 3371.09 1886.03 2292.97 -999.25  194.52    1.92    0.33   44.01    9.99
 3371.24 1886.05 2293.12 -999.25 -999.25    1.91    0.35   43.24    9.81
 3371.39 1886.06 2293.27 -999.25 -999.25    1.89    0.38   44.26    9.51
 3371.55 1886.08 2293.42 -999.25 -999.25    1.89    0.42   45.06    9.39
  3371.7  1886.1 2293.58 -999.25 -999.25     1.9     0.4   48.83    9.84
 3371.85 1886.11 2293.73 -999.25 -999.25    1.92     0.4   47.64    9.95
    3372 1886.13 2293.88 -999.25 -999.25    1.93    0.34   48.23      10
 3372.15 1886.15 2294.03 -999.25 -999.25    1.92    0.33   46.73   10.07
 3372.31 1886.16 2294.18 -999.25 -999.25     1.9    0.34   46.85    9.75
 3372.46 1886.18 2294.33 -999.25 -999.25    1.89    0.39   47.67    9.37
 3372.61  1886.2 2294.48 -999.25 -999.25     1.9     0.4    46.3    9.26
 3372.76 1886.22 2294.64 -999.25 -999.25    1.92    0.39   47.03    9.54
 3372.92 1886.23 2294.79 -999.25 -999.25    1.96    0.36   45.39    9.85
 3373.07 1886.25 2294.94 -999.25 -999.25    1.98    0.34   45.84    9.88
 3373.22 1886.27 2295.09 -999.25 -999.25    1.95    0.31   45.58    9.85
 3373.37 1886.28 2295.24 -999.25 -999.25    1.92    0.34   47.48    9.48
 3373.53  1886.3 2295.39 -999.25 -999.25    1.92    0.39   44.31     9.3
 3373.68 1886.32 2295.54 -999.25 -999.25    1.93    0.44   39.31    9.41
 3373.83 1886.33  2295.7 -999.25 -999.25    1.96    0.41   42.36    9.79
 3373.98 1886.35 2295.85 -999.25 -999.25    1.98    0.37   48.13   10.03
 3374.14 1886.37    2296 -999.25 -999.25    1.96    0.34   44.14   10.05
 3374.29 1886.38 2296.15 -999.25 -999.25    1.94    0.35   45.41    9.83
 3374.44  1886.4  2296.3 -999.25 -999.25    1.93    0.36   44.27    9.42
 3374.59 1886.42 2296.45 -999.25 -999.25    1.93    0.38   42.55    9.22
 3374.75 1886.43  2296.6 -999.25 -999.25    1.94    0.39   42.33    9.47
  3374.9 1886.45 2296.76 -999.25 -999.25    1.97    0.38   47.04    9.88
 3375.05 1886.47 2296.91 -999.25 -999.25    1.98    0.35   46.88   10.01
  3375.2 1886.48 2297.06 -999.25 -999.25    1.95    0.34   47.89    9.98
 3375.36  1886.5 2297.21 -999.25 -999.25    1.92    0.36    44.1    9.54
 3375.51 1886.52 2297.36 -999.25 -999.25    1.91    0.42   43.66    9.21
 3375.66 1886.54 2297.51 -999.25 -999.25    1.93    0.44   53.06    9.35
 3375.81 1886.55 2297.66 -999.25 -999.25    1.97    0.42   41.35    9.72
 3375.96 1886.57 2297.82 -999.25 -999.25    2.01    0.39   48.43   10.08
 3376.12 1886.59 2297.97 -999.25 -999.25       2    0.39   47.27   10.07
 3376.27  1886.6 2298.12 -999.25 -999.25    1.96    0.38   49.35    9.84
 3376.42 1886.62 2298.27 -999.25 -999.25    1.93    0.39   48.94    9.46
 3376.57 1886.64 2298.42 -999.25 -999.25    1.93    0.41   45.76    9.34
 3376.73 1886.65 2298.57 -999.25 -999.25    1.94    0.43   44.49    9.46
 3376.88 1886.67 2298.72 -999.25 -999.25    1.96    0.42   46.86    9.89
 3377.03 1886.69 2298.88 -999.25 -999.25    1.98    0.37   49.09   10.28
 3377.18  1886.7 2299.03 -999.25 -999.25    1.96    0.32   43.99   10.24
 3377.34 1886.72 2299.18 -999.25 -999.25    1.94    0.32   47.17    9.85
 3377.49 1886.74 2299.33 -999.25 -999.25    1.92    0.35   44.39    9.52
 3377.64 1886.75 2299.48 -999.25 -999.25    1.92     0.4   46.52    9.53
 3377.79 1886.77 2299.63 -999.25 -999.25    1.93    0.46   45.42    9.65
 3377.95 1886.79 2299.78 -999.25 -999.25    1.96    0.45   48.59    9.93
  3378.1  1886.8 2299.93 -999.25 -999.25       2    0.42   53.81   10.29
 3378.25 1886.82 2300.09 -999.25 -999.25    2.01    0.37   51.05   10.21
  3378.4 1886.84 2300.24 -999.25 -999.25    1.97    0.37   53.63    9.89
 3378.56 1886.86 2300.39 -999.25 -999.25    1.84    0.39   52.44    9.44
 3378.71 1886.87 2300.54 -999.25 -999.25    1.69    0.45   45.28     9.4
 3378.86 1886.89 2300.69 -999.25 -999.25    1.65    0.48   45.78    9.71
 3379.01 1886.91 2300.84 -999.25 -999.25    1.68    0.48   45.52   10.32
 3379.17 1886.92 2300.99 -999.25 -999.25    1.78    0.47   46.27   10.57
 3379.32 1886.94 2301.15 -999.25 -999.25    1.88    0.42   50.95   10.41
 3379.47 1886.96  2301.3 -999.25 -999.25    2.03     0.4   52.23   10.01
 3379.62 1886.97 2301.45 -999.25 -999.25    2.11     0.4   50.88    9.67
 3379.77 1886.99  2301.6  225.17 -999.25    2.05    0.43   48.69    9.58
 3379.93 1887.01 2301.75  398.81 -999.25       2    0.42   51.36    9.91
 3380.08 1887.06  2301.9  398.81 -999.25    2.02     0.4    51.9   10.36
 3380.23 1887.08 2302.05   398.8 -999.25    2.04    0.37   53.35   10.31
 3380.38  1887.1  2302.2  361.25 -999.25    2.03    0.36   53.95   10.09
 3380.54 1887.12 2302.36  323.82 -999.25       2    0.37      52    9.61
 3380.69 1887.13 2302.51     387 -999.25    1.99    0.41   47.76    9.29
 3380.84 1887.15 2302.66   449.9 -999.25    1.99    0.41   50.26    9.62
 3380.99 1887.17 2302.81  343.53 -999.25    1.99     0.4   51.66   10.04
 3381.15 1887.19 2302.96  283.05 -999.25       2    0.37   49.85   10.38
  3381.3  1887.2 2303.11  305.24 -999.25    2.02    0.37   51.22   10.35
 3381.45 1887.22 2303.26  312.27 -999.25    2.01    0.37   52.22   10.07
  3381.6 1887.24 2303.42   332.4 -999.25    2.01    0.39   51.37    9.52
 3381.76 1887.26 2303.57  200.44 -999.25       2     0.4   51.19    9.35
 3381.91 1887.27 2303.72  135.36 -999.25    1.99    0.42   48.76    9.61
 3382.06 1887.29 2303.87  243.41 -999.25    1.99    0.41   49.53    9.92
 3382.21 1887.31 2304.02  247.01 -999.25       2    0.38   56.67   10.25
 3382.37 1887.33 2304.17  239.75 -999.25    2.01    0.36   56.65   10.28
 3382.52 1887.34 2304.32  276.69 -999.25    2.03    0.35      58    9.93
 3382.67 1887.36 2304.48  265.73 -999.25    2.03    0.38   59.22    9.42
 3382.82 1887.38 2304.63  265.72 -999.25    2.03    0.41   57.78    9.24
 3382.98  1887.4 2304.78  289.15 -999.25    2.01    0.41   59.28    9.51
 3383.13 1887.41 2304.93   276.8 -999.25    2.01    0.39   58.74    9.96
 3383.28 1887.43 2305.08  330.88 -999.25    2.01    0.35    56.6   10.27
 3383.43 1887.45 2305.23  246.22 -999.25    2.01    0.34   59.09   10.23
 3383.58 1887.47 2305.38    96.6 -999.25       2    0.35   61.49    9.91
 3383.74 1887.48 2305.54   94.86 -999.25    1.98    0.38   57.37    9.42
 3383.89  1887.5 2305.69   94.86  485.62    1.96    0.39   58.92    9.16
 3384.04 1887.52 2305.84    90.3 1535.31    1.95     0.4   58.42    9.49
