# LAS format log file from PETREL
# Project units are specified as depth units
#==================================================================
~Version information
VERS.   2.0:
WRAP.   NO:
#==================================================================
~Well
STRT .m           3250.08 :
STOP .m           4804.87 :
STEP .m            0.1524 :
NULL .        -999.250000 :
COMP.                     : COMPANY
WELL.            WELLB-32 : WELL
FLD.                      : FIELD
LOC.                      : LOCATION
SRVC.                     : SERVICE COMPANY
DATE.  Wednesday, March 31 2010 12:32:47   : DATE
PROV.                     : PROVINCE
UWI.                      : UNIQUE WELL ID
API.                      : API NUMBER
#==================================================================
~Curve
DEPT .m                   : DEPTH
TVD  .m                   : TRUE VERTICAL DEPTH
HRZDISP .m                : HORIZONTAL DISPLACEMENT
ILM .ohm.m                : ILM
ILD .ohm.m                : ILD
RHOB .g/cm3               : RHOB
NPHI .m3/m3               : NPHI
GR .gAPI                  : GR
CALI .in                  : CALI
~Parameter
#==================================================================
#DEPT    TVD     HRZDISP      ILM        ILD        RHOB       NPHI       GR         CALI
~Ascii
# ...
  3568.6 1902.61  2489.7   11.44   11.36    2.08    0.48   68.44    9.42
 3568.75 1902.61 2489.85   13.62   11.34    2.08    0.47   70.56    9.42
  3568.9 1902.61    2490   14.81   11.64    2.09    0.44   71.39    9.42
 3569.06 1902.61 2490.16   15.04    12.1    2.11    0.41   63.59    9.52
 3569.21 1902.61 2490.31   15.38   12.92    2.11    0.42   70.94    9.64
 3569.36 1902.61 2490.46   15.49   13.69     2.1    0.46   65.92    9.72
 3569.51 1902.61 2490.61   15.52   14.52    2.07    0.47   65.24    9.71
 3569.67 1902.62 2490.77   14.71   15.73    2.06    0.45   68.22    9.75
 3569.82 1902.62 2490.92   14.71   15.73    2.06    0.43   66.63    9.78
 3569.97 1902.62 2491.07   15.11   16.17    2.07    0.41   67.41    9.77
 3570.12 1902.62 2491.22   15.68   16.22     2.1    0.44   67.18    9.73
 3570.27 1902.62 2491.38   17.55   16.63    2.11    0.46   61.55    9.68
 3570.43 1902.62 2491.53   19.18   17.45    2.11    0.47   55.37    9.63
 3570.58 1902.63 2491.68   18.96    19.8     2.1    0.43   53.68    9.53
 3570.73 1902.63 2491.83   19.09   20.29     2.1    0.41   46.89    9.48
 3570.88 1902.63 2491.99   21.12   20.46     2.1    0.42   48.83    9.41
 3571.04 1902.63 2492.14   26.17   21.27    2.12    0.46   47.39     9.4
 3571.19 1902.63 2492.29   24.59   23.43    2.12    0.45   46.16    9.44
 3571.34 1902.63 2492.44   24.58   23.44    2.12    0.45   45.72    9.48
 3571.49 1902.64  2492.6   21.44   29.36    2.13    0.45   49.37    9.53
 3571.65 1902.64 2492.75   23.64   29.27    2.13    0.47   48.68    9.64
  3571.8 1902.64  2492.9   25.68    30.9    2.14    0.44   47.29    9.78
 3571.95 1902.64 2493.05   23.16    39.1    2.12    0.42   46.26    9.89
  3572.1 1902.64 2493.21   23.03   38.31     2.1    0.41   45.19    9.95
 3572.26 1902.64 2493.36    36.8   38.47    2.08    0.41   45.55   10.01
 3572.41 1902.65 2493.51   45.15   38.06    2.08     0.4   45.81   10.06
 3572.56 1902.65 2493.66   46.73   41.54    2.06    0.38   46.87   10.12
 3572.71 1902.65 2493.81   61.22   43.02    2.03    0.36   49.39   10.15
 3572.87 1902.65 2493.97   59.56   44.96    2.01    0.38   42.89   10.22
 3573.02 1902.65 2494.12   63.47   40.92       2    0.38   47.28    10.2
 3573.17 1902.65 2494.27   65.05   54.69    2.01    0.41   45.31   10.18
 3573.32 1902.65 2494.42   65.05   54.69    2.02     0.4   45.86   10.34
 3573.48 1902.66 2494.58   75.11   58.74    2.04    0.39   52.33   10.34
 3573.63 1902.66 2494.73   77.88   60.03    2.03     0.4   54.22   10.07
 3573.78 1902.66 2494.88    69.3   63.76    2.06    0.43   50.22    9.89
 3573.93 1902.66 2495.03    65.5   66.32    2.07    0.44   49.43    9.91
 3574.08 1902.66 2495.19   81.65   60.18    2.07    0.43   54.93    9.88
 3574.24 1902.66 2495.34   44.98   58.85    2.03     0.4   52.62      10
 3574.39 1902.67 2495.49   37.92   82.26       2    0.42   51.26   10.32
 3574.54 1902.67 2495.64   34.21   97.09       2    0.42   50.61   10.45
 3574.69 1902.67  2495.8   36.14   86.05    2.02    0.42   51.81   10.51
 3574.85 1902.67 2495.95    36.2   86.03    2.02    0.41   50.87   10.49
    3575 1902.67  2496.1  111.05   60.32    2.02     0.4   52.47   10.44
 3575.15 1902.67 2496.25   79.83    65.2    2.04     0.4   51.23   10.51
  3575.3 1902.68 2496.41   79.86   65.19    2.05    0.38    62.2   10.46
 3575.46 1902.68 2496.56  103.68   58.33    2.05    0.36   71.85   10.42
 3575.61 1902.68 2496.71  102.32   55.17    2.04    0.35   78.47   10.37
 3575.76 1902.68 2496.86   70.48   54.16    2.01    0.35      78   10.08
 3575.91 1902.68 2497.02   82.97    50.5    2.01    0.36   79.31   10.05
 3576.07 1902.68 2497.17   83.24    49.3       2    0.37   69.39   10.12
 3576.22 1902.69 2497.32   81.87   52.24    2.01    0.37   67.18   10.17
 3576.37 1902.69 2497.47   89.42   48.49    2.03    0.38   57.32    10.2
 3576.52 1902.69 2497.63    83.1   47.42    2.05    0.39   56.75   10.19
 3576.68 1902.69 2497.78   83.09   41.15    2.06    0.39   57.07   10.15
 3576.83 1902.69 2497.93   83.09   41.14    2.07    0.41   56.21    9.98
 3576.98 1902.69 2498.08   95.83   36.99    2.07    0.42   62.27    9.98
 3577.13 1902.69 2498.24   99.28   35.35    2.08    0.44   64.26    9.98
 3577.29  1902.7 2498.39   92.72   32.98    2.09    0.45   64.65    9.95
 3577.44  1902.7 2498.54   88.64   31.07    2.09    0.45      66    9.89
 3577.59  1902.7 2498.69   40.74   28.34     2.1    0.44   65.22    9.85
 3577.74  1902.7 2498.84   25.33    27.5     2.1    0.43   64.85    9.81
 3577.89  1902.7    2499   24.37   26.24     2.1    0.43   70.16    9.77
 3578.05  1902.7 2499.15   30.12   24.69    2.09    0.44   72.58    9.74
  3578.2 1902.71  2499.3    21.9   23.94     2.1    0.43   74.02     9.7
 3578.35 1902.71 2499.45    18.7   21.45     2.1    0.43   75.15    9.66
  3578.5 1902.71 2499.61   17.86   18.72    2.11    0.41   77.75    9.59
 3578.66 1902.71 2499.76   20.71   16.34     2.1    0.44   75.06    9.54
 3578.81 1902.71 2499.91   20.71   16.33    2.09    0.46   73.41    9.64
 3578.96 1902.71 2500.06   14.71   14.35    2.08    0.48   70.33    9.87
 3579.11 1902.72 2500.22   14.74   14.05    2.07    0.46   71.52   10.03
 3579.27 1902.72 2500.37   14.19   13.89    2.08    0.45   65.38   10.18
 3579.42 1902.72 2500.52   13.03      13    2.09    0.44   69.43   10.21
 3579.57 1902.72 2500.67   12.42   11.91     2.1    0.45   66.45   10.16
 3579.72 1902.72 2500.83    12.1    11.8    2.11    0.45   65.63   10.06
 3579.88 1902.72 2500.98   13.71   11.16    2.12    0.45   68.93      10
 3580.03 1902.31 2501.12   15.58   10.48    2.12    0.46   68.08    9.91
 3580.18  1902.3 2501.27    12.1    9.61    2.11    0.44   65.97     9.8
 3580.33  1902.3 2501.43    12.1    9.61     2.1    0.45   68.13    9.77
 3580.49 1902.29 2501.58    7.91    8.96    2.11    0.44   68.85    9.77
 3580.64 1902.29 2501.73    7.82    8.93    2.12    0.46   67.67    9.77
 3580.79 1902.29 2501.88    7.78     8.9    2.12    0.48   70.56    9.73
 3580.94 1902.28 2502.04    8.05    8.69    2.11    0.49   71.08    9.67
  3581.1 1902.28 2502.19    7.51    8.57     2.1    0.49   68.13    9.58
 3581.25 1902.27 2502.34    7.44    9.09    2.08    0.47   66.61    9.63
  3581.4 1902.27 2502.49    7.56    8.44    2.07    0.46   65.22    9.75
 3581.55 1902.26 2502.64    7.42    8.49    2.08    0.45   66.55    9.85
  3581.7 1902.26  2502.8     8.1    8.16    2.08    0.46   66.69    9.96
 3581.86 1902.25 2502.95    9.08    7.76    2.08    0.45   65.91   10.08
 3582.01 1902.25  2503.1    9.59    7.67    2.08    0.46   64.52   10.18
 3582.16 1902.24 2503.25   10.42    7.75    2.08    0.43   64.75   10.16
 3582.31 1902.24 2503.41   10.42    7.76     2.1    0.42   66.78   10.14
 3582.47 1902.23 2503.56   12.23    7.96    2.12    0.41    65.5   10.09
 3582.62 1902.23 2503.71   12.27    7.83    2.13    0.44   71.59   10.04
 3582.77 1902.22 2503.86   12.23    7.78    2.13    0.45   69.51    9.98
 3582.92 1902.22 2504.02   11.33    7.72    2.13    0.47   66.14    9.85
 3583.08 1902.21 2504.17    9.54    7.55    2.13    0.46   66.02    9.75
 3583.23 1902.21 2504.32    8.98    7.81    2.13    0.47   63.77     9.7
 3583.38 1902.21 2504.47    8.72    7.86    2.13    0.47   66.64    9.66
 3583.53  1902.2 2504.62    8.29       8    2.11    0.46   69.43     9.6
 3583.69  1902.2 2504.78    9.06    8.22    2.11    0.46   70.37    9.61
 3583.84 1902.19 2504.93    9.06    8.22    2.12    0.45   67.22    9.66
 3583.99 1902.19 2505.08    9.73     8.1    2.13    0.45   65.99    9.74
 3584.14 1902.18 2505.23    9.95    8.14    2.14    0.45   68.77    9.82
  3584.3 1902.18 2505.39   10.33     8.1    2.14    0.44   70.14    9.91
 3584.45 1902.17 2505.54   10.63    8.22    2.14    0.45   70.66    9.92
  3584.6 1902.17 2505.69   11.03     8.1    2.15    0.46   62.39    9.91
 3584.75 1902.16 2505.84   11.03    7.97    2.15    0.47   67.77    9.89
 3584.91 1902.16 2505.99    11.1    7.61    2.15    0.47   67.91    9.88
 3585.06 1902.15 2506.15   10.94    7.47    2.15    0.47   65.66     9.9
 3585.21 1902.15  2506.3   10.64     7.7    2.15    0.47   62.79    9.88
