# LAS format log file from PETREL
# Project units are specified as depth units
#==================================================================
~Version information
VERS.   2.0:
WRAP.   NO:
#==================================================================
~Well
STRT .m           3250.08 :
STOP .m           4804.87 :
STEP .m            0.1524 :
NULL .        -999.250000 :
COMP.                     : COMPANY
WELL.            WELLB-32 : WELL
FLD.                      : FIELD
LOC.                      : LOCATION
SRVC.                     : SERVICE COMPANY
DATE.  Wednesday, March 31 2010 12:32:47   : DATE
PROV.                     : PROVINCE
UWI.                      : UNIQUE WELL ID
API.                      : API NUMBER
#==================================================================
~Curve
DEPT .m                   : DEPTH
TVD  .m                   : TRUE VERTICAL DEPTH
HRZDISP .m                : HORIZONTAL DISPLACEMENT
ILM .ohm.m                : ILM
ILD .ohm.m                : ILD
RHOB .g/cm3               : RHOB
NPHI .m3/m3               : NPHI
GR .gAPI                  : GR
CALI .in                  : CALI
~Parameter
#==================================================================
#DEPT    TVD     HRZDISP      ILM        ILD        RHOB       NPHI       GR         CALI
~Ascii
# ...
 4373.27 1862.91 3292.93  156.37  195.89       2    0.37   62.39     5.8
 4373.42 1862.91 3293.08  160.91  193.75    1.98    0.39    62.6    5.88
 4373.58  1862.9 3293.24  162.32  195.58    1.97     0.4   63.73    5.96
 4373.73  1862.9 3293.39   164.1  199.06    1.97     0.4   65.92    5.99
 4373.88  1862.9 3293.54   167.5  193.02    1.97     0.4   64.43     6.1
 4374.03  1862.9 3293.69   171.1   196.1    1.97    0.41    63.2    6.17
 4374.18  1862.9 3293.85  171.87  201.08    1.98    0.41   63.09    6.23
 4374.34  1862.9    3294  178.63  202.46    2.01    0.37   61.37     6.3
 4374.49  1862.9 3294.15  184.43     208    2.06    0.27   56.58    6.29
 4374.64 1862.89  3294.3  191.21  209.47    2.17    0.17   51.14    6.07
 4374.79 1862.89 3294.46  219.68  235.23    2.34    0.11    50.5    5.95
 4374.95 1862.89 3294.61  204.81  248.42    2.54     0.1   52.53    6.06
  4375.1 1862.89 3294.76  226.54  252.73    2.66    0.11   54.27    6.06
 4375.25 1862.89 3294.91  212.49  233.27    2.65    0.13   54.11    6.06
  4375.4 1862.89 3295.07   204.1  222.61    2.55    0.16   56.84    6.07
 4375.56 1862.88 3295.22  213.03  202.72     2.4    0.22    58.1    6.16
 4375.71 1862.88 3295.37   196.2  206.47    2.23     0.3   62.72     6.2
 4375.86 1862.88 3295.52  158.95  199.53    2.13    0.37   63.23    5.78
 4376.01 1862.88 3295.68  126.91  198.41    2.11     0.4   66.88     6.1
 4376.17 1862.88 3295.83  217.84  182.52    2.13     0.4   66.29    6.17
 4376.32 1862.88 3295.98   171.3  184.65    2.16    0.41   64.51    6.17
 4376.47 1862.88 3296.13  158.62  187.85    2.16    0.41   65.96    6.17
 4376.62 1862.87 3296.28  159.19  183.21    2.14    0.38    66.4    6.17
 4376.78 1862.87 3296.44  155.25  184.43    2.12    0.36   67.04    6.17
 4376.93 1862.87 3296.59  156.07  186.46    2.11    0.37   66.65    6.27
 4377.08 1862.87 3296.74  156.63  183.12     2.1    0.38   68.08    6.38
 4377.23 1862.87 3296.89  159.71  194.56    2.11    0.38   70.33    6.41
 4377.39 1862.87 3297.05  158.49  192.08    2.11    0.37    69.6    6.29
 4377.54 1862.86  3297.2  163.42  198.17    2.09    0.39   68.37     5.9
 4377.69 1862.86 3297.35  163.73  205.98    2.02    0.38   67.92    6.02
 4377.84 1862.86  3297.5   168.9  205.21    1.99    0.37   68.73    6.01
 4377.99 1862.86 3297.66  181.28  199.98    1.99    0.37   67.92     5.9
 4378.15 1862.86 3297.81  172.26  186.71    1.99    0.36   67.01    5.98
  4378.3 1862.86 3297.96  161.59  185.57    1.98    0.36   63.53    5.95
 4378.45 1862.86 3298.11  149.36  191.95    1.97    0.34   63.39    6.12
  4378.6 1862.85 3298.27  146.18  190.05    2.05    0.31   61.87    6.09
 4378.76 1862.85 3298.42  152.56  190.36     2.2    0.29   58.69    5.93
 4378.91 1862.85 3298.57  155.96  192.57    2.33    0.28    56.1    5.98
 4379.06 1862.85 3298.72  157.04  193.75    2.36    0.29    55.5    5.88
 4379.21 1862.85 3298.87  152.16  183.14    2.31    0.29   57.77    5.87
 4379.37 1862.85 3299.03   142.1   178.2    2.22    0.29   57.83    6.12
 4379.52 1862.84 3299.18  133.72  172.26    2.13    0.32   55.69    5.92
 4379.67 1862.84 3299.33  129.37  159.93    2.07    0.36    55.6    5.75
 4379.82 1862.84 3299.48  123.21  153.61    2.08    0.39   56.93    5.93
 4379.98 1862.84 3299.64  116.53  144.56    2.07    0.41   61.44    6.01
 4380.13 1862.84 3299.79  114.11  150.92    2.08    0.39   60.39    6.05
 4380.28 1862.84 3299.94  122.94  161.96    2.17    0.32   58.44    6.05
 4380.43 1862.84 3300.09  136.79  171.72    2.32    0.21   53.59    5.98
 4380.59 1862.83 3300.25  155.89   186.7     2.5    0.13   48.74    5.91
 4380.74 1862.83  3300.4  179.76  202.56    2.62    0.09   44.11    5.75
 4380.89 1862.83 3300.55  205.87  221.41    2.65    0.08   40.39    5.88
 4381.04 1862.83  3300.7  231.49  264.84    2.68    0.07   41.42    5.98
  4381.2 1862.83 3300.86  280.75  334.09    2.66    0.08   42.68    6.03
 4381.35 1862.83 3301.01  296.72  353.07    2.68    0.08   45.33    6.04
  4381.5 1862.83 3301.16  294.37  348.82    2.67    0.09   47.36    5.97
 4381.65 1862.82 3301.31  293.49  330.26    2.67    0.08   47.67    5.99
  4381.8 1862.82 3301.47  292.45   309.9    2.67    0.08   46.86    6.03
 4381.96 1862.82 3301.62  280.55  292.33    2.66    0.07   45.72    6.16
 4382.11 1862.82 3301.77   270.5  282.47    2.65    0.07   45.35    6.22
 4382.26 1862.82 3301.92  247.07  267.11    2.63    0.08   45.27    6.14
 4382.41 1862.82 3302.07   231.7   253.3     2.6    0.08   45.37    5.93
 4382.57 1862.81 3302.23  213.93  237.25    2.61    0.09    47.5    5.75
 4382.72 1862.81 3302.38  194.33  218.61    2.64     0.1   49.15    5.86
 4382.87 1862.81 3302.53  177.73  207.75    2.67    0.11   47.77    5.96
 4383.02 1862.81 3302.68  168.04  206.54    2.57    0.12   52.55    6.03
 4383.18 1862.81 3302.84  157.95  193.87    2.37    0.14    55.7    6.01
 4383.33 1862.81 3302.99  147.45  185.54    2.15    0.18   53.95    6.03
 4383.48 1862.81 3303.14  140.64  181.46    2.03    0.26   49.12    5.94
 4383.63  1862.8 3303.29  137.91  179.14    1.98    0.34   48.79    6.04
 4383.79  1862.8 3303.45  141.56  179.31    1.95    0.39   57.93    6.27
 4383.94  1862.8  3303.6  144.82  179.69    1.94     0.4   58.15    6.17
 4384.09  1862.8 3303.75  148.22  184.19    1.96     0.4   59.96    6.03
 4384.24  1862.8  3303.9  155.66   191.3    1.98    0.39   58.17     6.1
  4384.4  1862.8 3304.06  161.46  195.78    1.97    0.39   60.54    6.33
 4384.55 1862.79 3304.21  166.02  208.53    1.98    0.39   58.32    6.15
  4384.7 1862.79 3304.36  168.57  221.47    1.97    0.39   59.34    6.24
 4384.85 1862.79 3304.51  179.68   230.4    1.98    0.37   60.45    6.37
 4385.01 1862.79 3304.67  186.02   228.3       2    0.36   60.65    6.07
 4385.16 1862.79 3304.82  186.51  233.07    2.01    0.37   58.67    6.12
 4385.31 1862.79 3304.97  185.27  230.83    1.99    0.39   58.89    6.17
 4385.46 1862.79 3305.12  179.09  217.25    1.96    0.42   61.23    6.09
 4385.61 1862.78 3305.27  182.34  222.36    1.95     0.4   62.93    6.04
 4385.77 1862.78 3305.43  184.25  238.28    1.93    0.39   61.88    6.25
 4385.92 1862.78 3305.58  191.47  236.16    1.92    0.34   61.25     6.2
 4386.07 1862.78 3305.73  238.45  251.78    1.94    0.35   63.96    6.14
 4386.22 1862.78 3305.88  206.59  241.38    1.94    0.36   65.74    6.22
 4386.38 1862.78 3306.04   157.9  244.37    1.94     0.4    68.6     6.3
 4386.53 1862.77 3306.19  201.34  237.46    1.93    0.41   68.12    6.25
 4386.68 1862.77 3306.34  184.24  257.83    1.94    0.41   66.39    6.17
 4386.83 1862.77 3306.49  214.99   243.2    1.94     0.4   64.81    6.15
 4386.99 1862.77 3306.65  211.83  258.58    1.95    0.39   61.92    6.21
 4387.14 1862.77  3306.8  229.05   257.8    1.95    0.39   63.05    6.38
 4387.29 1862.77 3306.95  227.73  255.33    1.95     0.4   59.82    6.08
 4387.44 1862.77  3307.1  227.47  253.01    1.95     0.4   59.79    6.04
  4387.6 1862.76 3307.26  225.23  259.93    1.94     0.4   58.95     6.2
 4387.75 1862.76 3307.41  224.36  259.63    1.94    0.39   59.86    6.19
  4387.9 1862.76 3307.56  227.73   264.1    1.93    0.38   60.71    6.16
 4388.05 1862.76 3307.71  232.66  254.38    1.93    0.36   61.67    6.03
 4388.21 1862.76 3307.87  222.12  260.61    1.94    0.35   61.95    5.85
 4388.36 1862.76 3308.02  225.81  256.33    1.95    0.35   61.84    6.01
 4388.51 1862.75 3308.17  233.51  262.87    1.95    0.37    62.1    6.18
 4388.66 1862.75 3308.32  232.21  263.25    1.96    0.38   57.97    5.97
 4388.82 1862.75 3308.47  243.18  258.86    1.97     0.4   56.11     5.7
 4388.97 1862.75 3308.63  242.86  258.98    1.96    0.38   52.97    5.95
 4389.12 1863.48 3308.78  244.87   269.1    1.96    0.38   59.35    6.04
 4389.27 1863.49 3308.93  249.25  274.99    1.96    0.38   57.12    6.03
 4389.42 1863.49 3309.08  246.87  270.25    1.95     0.4   57.53    6.03
 4389.58 1863.49 3309.23  242.61  266.76    1.94    0.41   52.52    6.03
 4389.73  1863.5 3309.38  242.79  263.47    1.94    0.41   54.42    6.03
 4389.88  1863.5 3309.54  243.73   267.3    1.94     0.4   54.22    6.01
