# LAS format log file from PETREL
# Project units are specified as depth units
#==================================================================
~Version information
VERS.   2.0:
WRAP.   NO:
#==================================================================
~Well
STRT .m           3250.08 :
STOP .m           4804.87 :
STEP .m            0.1524 :
NULL .        -999.250000 :
COMP.                     : COMPANY
WELL.            WELLB-32 : WELL
FLD.                      : FIELD
LOC.                      : LOCATION
SRVC.                     : SERVICE COMPANY
DATE.  Wednesday, March 31 2010 12:32:47   : DATE
PROV.                     : PROVINCE
UWI.                      : UNIQUE WELL ID
API.                      : API NUMBER
#==================================================================
~Curve
DEPT .m                   : DEPTH
TVD  .m                   : TRUE VERTICAL DEPTH
HRZDISP .m                : HORIZONTAL DISPLACEMENT
ILM .ohm.m                : ILM
ILD .ohm.m                : ILD
RHOB .g/cm3               : RHOB
NPHI .m3/m3               : NPHI
GR .gAPI                  : GR
CALI .in                  : CALI
~Parameter
#==================================================================
#DEPT    TVD     HRZDISP      ILM        ILD        RHOB       NPHI       GR         CALI
~Ascii
# ...
  4172.1    1865 3091.79   57.24 -999.25    2.05    0.33   50.58    9.69
 4172.25 1864.99 3091.94   57.66 -999.25    2.03    0.31      51    9.69
 4172.41 1864.99 3092.09   58.32 -999.25    2.01    0.31   48.19    9.73
 4172.56 1864.98 3092.24   60.72 -999.25    2.01    0.32   47.73    9.78
 4172.71 1864.98  3092.4   60.72 -999.25    2.01    0.32   48.45    9.81
 4172.86 1864.97 3092.55   63.42 -999.25    2.03    0.32   47.24     9.9
 4173.02 1864.96  3092.7    66.1 -999.25    2.03    0.32   49.59     9.9
 4173.17 1864.96 3092.85   64.21 -999.25    2.04     0.3   45.18    9.96
 4173.32 1864.95 3093.01   62.52 -999.25    2.03    0.31   45.12   10.03
 4173.47 1864.95 3093.16    62.3 -999.25    2.03     0.3   46.72   10.04
 4173.63 1864.94 3093.31    62.3 -999.25    2.02    0.31   45.78    9.97
 4173.78 1864.94 3093.46   64.72 -999.25    2.01    0.32   44.16    9.98
 4173.93 1864.93 3093.61   62.04 -999.25       2    0.34    46.4      10
 4174.08 1864.93 3093.77   60.58 -999.25       2    0.34   47.85   10.08
 4174.24 1864.92 3093.92   59.21 -999.25       2    0.33   46.09   10.14
 4174.39 1864.92 3094.07   60.24 -999.25    2.01    0.32   45.16   10.11
 4174.54 1864.91 3094.22   62.48 -999.25       2    0.32   44.48   10.07
 4174.69  1864.9 3094.38   64.73 -999.25       2    0.32   43.98    9.98
 4174.85  1864.9 3094.53   59.31 -999.25    1.99    0.32   48.01    9.97
    4175 1864.89 3094.68   60.35 -999.25       2    0.32   48.05    9.98
 4175.15 1864.89 3094.83   61.06 -999.25    2.01    0.33   48.17    9.97
  4175.3 1864.88 3094.99    59.5 -999.25    2.01    0.34   47.57   10.06
 4175.46 1864.88 3095.14   59.54 -999.25    2.01    0.34   47.41   10.11
 4175.61 1864.87 3095.29   59.07 -999.25       2    0.34   41.71   10.03
 4175.76 1864.87 3095.44   56.96 -999.25    1.99    0.34   44.15    9.88
 4175.91 1864.86 3095.59   57.35 -999.25    1.98    0.33   42.14    9.72
 4176.06 1864.86 3095.75   57.76 -999.25    1.99    0.34   41.96    9.69
 4176.22 1864.85  3095.9   63.79 -999.25    1.99    0.33   44.52    9.67
 4176.37 1864.84 3096.05   60.17 -999.25       2    0.33   43.04    9.65
 4176.52 1864.84  3096.2   56.58 -999.25    1.98    0.33   44.16    9.57
 4176.67 1864.83 3096.36   60.57 -999.25    1.98    0.33    42.2     9.6
 4176.83 1864.83 3096.51   59.18 -999.25    1.98    0.32   44.13    9.65
 4176.98 1864.82 3096.66   59.71 -999.25    1.99     0.3   40.21    9.66
 4177.13 1864.82 3096.81   59.98 -999.25    1.99    0.29   42.04     9.6
 4177.28 1864.81 3096.97   56.59 -999.25    1.98     0.3   41.48    9.58
 4177.44 1864.81 3097.12   56.66 -999.25    1.97    0.32   42.74    9.61
 4177.59  1864.8 3097.27   60.33 -999.25    1.96    0.33   41.04    9.63
 4177.74  1864.8 3097.42   61.41 -999.25    1.96    0.33   39.53    9.61
 4177.89 1864.79 3097.57   62.26 -999.25    1.97    0.33    41.3    9.64
 4178.05 1864.78 3097.73    63.4 -999.25    1.98    0.32   41.01     9.6
  4178.2 1864.78 3097.88   62.64 -999.25    1.98    0.31   42.44    9.58
 4178.35 1864.77 3098.03   61.48 -999.25    1.98    0.31    40.6    9.56
  4178.5 1864.77 3098.18   62.38 -999.25    1.97    0.31   40.29    9.57
 4178.66 1864.76 3098.34   60.92 -999.25    1.98    0.32   40.11    9.56
 4178.81 1864.76 3098.49   61.28 -999.25    1.98    0.32    40.8    9.62
 4178.96 1864.75 3098.64   62.76 -999.25    1.98    0.32    42.6    9.69
 4179.11 1864.75 3098.79   62.75 -999.25    1.97    0.32   42.87    9.72
 4179.27 1864.74 3098.94   60.38 -999.25    1.97    0.32   44.33    9.72
 4179.42 1864.74  3099.1   59.65 -999.25    1.98    0.31   45.85    9.73
 4179.57 1864.73 3099.25   64.82 -999.25       2    0.32   46.14    9.64
 4179.72 1864.72  3099.4   62.51 -999.25    2.01    0.32   45.15    9.64
 4179.87 1864.72 3099.55   62.88 -999.25       2    0.32   47.99    9.64
 4180.03 1865.56 3099.73    59.4 -999.25       2    0.34   41.41    9.64
 4180.18 1865.56 3099.88   60.79 -999.25       2    0.35   50.38    9.65
 4180.33 1865.56 3100.03   60.79 -999.25       2    0.36   45.41     9.6
 4180.48 1865.56 3100.18   62.02 -999.25       2    0.35   52.41    9.63
 4180.64 1865.56 3100.33   61.41 -999.25    2.01    0.34   49.71    9.61
 4180.79 1865.56 3100.49   61.52 -999.25    2.01    0.32   49.12     9.6
 4180.94 1865.56 3100.64   61.04 -999.25       2    0.31   49.69    9.61
 4181.09 1865.56 3100.79   60.09 -999.25    1.99    0.32   50.17    9.57
 4181.25 1865.56 3100.94   60.08 -999.25       2    0.33   49.18    9.61
  4181.4 1865.56  3101.1   57.19 -999.25    1.99    0.34   47.22    9.62
 4181.55 1865.56 3101.25   61.27 -999.25    1.99    0.33   47.37    9.63
  4181.7 1865.56  3101.4   60.56 -999.25    1.99    0.32   48.28    9.59
 4181.86 1865.55 3101.55   60.57 -999.25       2    0.31   45.72    9.61
 4182.01 1865.55 3101.71   59.51 -999.25       2    0.32   48.22    9.63
 4182.16 1865.55 3101.86   59.34 -999.25       2    0.33   47.46    9.62
 4182.31 1865.55 3102.01   59.17 -999.25       2    0.33   46.23    9.63
 4182.47 1865.55 3102.16   60.94 -999.25       2    0.33   49.02    9.69
 4182.62 1865.55 3102.32   62.37 -999.25       2    0.31   47.23    9.61
 4182.77 1865.55 3102.47   62.88 -999.25    1.99    0.32   47.04    9.53
 4182.92 1865.55 3102.62   61.03 -999.25    1.98    0.32   47.49    9.54
 4183.08 1865.55 3102.77    62.5 -999.25    1.98    0.32   49.22    9.61
 4183.23 1865.55 3102.93    62.5 -999.25    1.98    0.31   46.76    9.71
 4183.38 1865.55 3103.08   57.94 -999.25    1.98    0.31   48.73    9.65
 4183.53 1865.55 3103.23   57.45 -999.25    1.97     0.3   48.51    9.59
 4183.68 1865.55 3103.38   56.97 -999.25    1.97    0.32   47.81    9.62
 4183.84 1865.55 3103.53   59.23 -999.25    1.98    0.33   48.63    9.59
 4183.99 1865.55 3103.69   59.83 -999.25    1.99    0.33   46.83    9.58
 4184.14 1865.54 3103.84   60.13 -999.25       2    0.32   44.46    9.56
 4184.29 1865.54 3103.99   60.43 -999.25    1.99    0.32   44.93    9.57
 4184.45 1865.54 3104.14   58.37 -999.25    1.99    0.33   47.87    9.59
  4184.6 1865.54  3104.3   56.76 -999.25    1.99    0.33   47.94    9.57
 4184.75 1865.54 3104.45   58.88 -999.25    1.98    0.33      47    9.58
  4184.9 1865.54  3104.6   58.35    65.8    1.97    0.33   48.39    9.59
 4185.06 1865.54 3104.75   57.83   70.63    1.97    0.33      48    9.64
 4185.21 1865.54 3104.91   59.39   70.63    1.98    0.34   50.57    9.69
 4185.36 1865.54 3105.06   60.56 -999.25    1.98    0.33   45.58    9.78
 4185.51 1865.54 3105.21   60.04 -999.25    1.99    0.32   44.09    9.84
 4185.67 1865.54 3105.36   59.51 -999.25    1.99    0.32   45.53     9.9
 4185.82 1865.54 3105.52   60.61 -999.25    1.99    0.33   44.03    9.89
 4185.97 1865.54 3105.67   61.35 -999.25    1.99    0.34   45.28     9.9
 4186.12 1865.54 3105.82   62.25 -999.25    1.99    0.34   44.31    9.85
 4186.28 1865.54 3105.97    60.8 -999.25       2    0.33   44.19    9.86
 4186.43 1865.53 3106.13   65.36 -999.25       2    0.34   46.02    9.88
 4186.58 1865.53 3106.28    60.8 -999.25    2.01    0.34   44.14    9.91
 4186.73 1865.53 3106.43   60.79 -999.25       2    0.32   43.38    9.91
 4186.89 1865.53 3106.58    60.8 -999.25    2.01    0.31   46.38    9.94
 4187.04 1865.53 3106.74   62.62 -999.25    2.01    0.31   45.13    9.98
 4187.19 1865.53 3106.89   60.04 -999.25    2.01    0.32   44.32   10.02
 4187.34 1865.53 3107.04   62.28 -999.25       2    0.32    44.3   10.03
 4187.49 1865.53 3107.19   60.21 -999.25    2.01    0.33   43.89    9.96
 4187.65 1865.53 3107.34   60.21 -999.25    2.01    0.33   43.08    9.95
  4187.8 1865.53  3107.5   59.17 -999.25    2.01    0.34   42.41    9.91
 4187.95 1865.53 3107.65   63.13 -999.25    2.02    0.36   41.05    9.91
  4188.1 1865.53  3107.8   63.14 -999.25    2.03    0.34   42.85    9.94
 4188.26 1865.53 3107.95   60.58 -999.25    2.03    0.32   44.52    9.93
 4188.41 1865.53 3108.11   59.63 -999.25    2.03    0.31   45.14    9.93
 4188.56 1865.53 3108.26   64.04 -999.25    2.03    0.31   46.58    9.95
 4188.71 1865.53 3108.41   64.04 -999.25    2.03    0.33   47.41    9.97
