# LAS format log file from PETREL
# Project units are specified as depth units
#==================================================================
~Version information
VERS.   2.0:
WRAP.   NO:
#==================================================================
~Well
STRT .m           3250.08 :
STOP .m           4804.87 :
STEP .m            0.1524 :
NULL .        -999.250000 :
COMP.                     : COMPANY
WELL.            WELLB-32 : WELL
FLD.                      : FIELD
LOC.                      : LOCATION
SRVC.                     : SERVICE COMPANY
DATE.  Wednesday, March 31 2010 12:32:47   : DATE
PROV.                     : PROVINCE
UWI.                      : UNIQUE WELL ID
API.                      : API NUMBER
#==================================================================
~Curve
DEPT .m                   : DEPTH
TVD  .m                   : TRUE VERTICAL DEPTH
HRZDISP .m                : HORIZONTAL DISPLACEMENT
ILM .ohm.m                : ILM
ILD .ohm.m                : ILD
RHOB .g/cm3               : RHOB
NPHI .m3/m3               : NPHI
GR .gAPI                  : GR
CALI .in                  : CALI
~Parameter
#==================================================================
#DEPT    TVD     HRZDISP      ILM        ILD        RHOB       NPHI       GR         CALI
~Ascii
# ...
 4675.02 1867.34 3594.55    1.13    1.34    2.02    0.42   72.28    6.03
 4675.17 1867.33  3594.7    1.12    1.33    2.03    0.45   69.03    6.12
 4675.33 1867.33 3594.86     1.1     1.3    2.03    0.44   69.88    6.09
 4675.48 1867.32 3595.01    1.08    1.28    2.02    0.45   69.34    6.05
 4675.63 1867.32 3595.16    1.06    1.27    2.01    0.43   73.88    6.06
 4675.78 1867.32 3595.31    1.06    1.29    2.02    0.42   73.28    6.12
 4675.94 1867.31 3595.47    1.08    1.33    2.03    0.41   73.13    6.17
 4676.09 1867.31 3595.62    1.16    1.44    2.04    0.41   72.34    6.17
 4676.24  1867.3 3595.77    1.29    1.55    2.04     0.4   71.99    6.17
 4676.39  1867.3 3595.92    1.39     1.6    2.04    0.41   71.78    6.13
 4676.55  1867.3 3596.07    1.47    1.68    2.03    0.42   70.16     6.1
  4676.7 1867.29 3596.23    1.61    1.76    2.03    0.42   69.29       6
 4676.85 1867.29 3596.38    1.73    1.79    2.01    0.39   68.39    5.92
    4677 1867.28 3596.53    1.81    1.79    2.01    0.38   68.81    5.89
 4677.16 1867.28 3596.68    1.68    1.76    2.01    0.37   69.77    5.99
 4677.31 1867.27 3596.84     1.5    1.77    2.02    0.38    71.2    6.07
 4677.46 1867.27 3596.99    1.48    1.79    2.02    0.39    71.8    6.08
 4677.61 1867.27 3597.14     1.5    1.74    2.01     0.4   72.74    6.04
 4677.77 1867.26 3597.29    1.49    1.69       2     0.4    73.3    6.09
 4677.92 1867.26 3597.45    1.47    1.67       2    0.42   73.26    6.02
 4678.07 1867.25  3597.6    1.49    1.64    2.01    0.43   74.21    5.65
 4678.22 1867.25 3597.75    1.52    1.64    2.02    0.42      76    5.72
 4678.38 1867.25  3597.9    1.53    1.66    2.01    0.39   79.05    5.86
 4678.53 1867.24 3598.05    1.55    1.67    2.01    0.38   79.43    5.91
 4678.68 1867.24 3598.21    1.57     1.7    2.01    0.39   79.93    6.03
 4678.83 1867.23 3598.36    1.59    1.73    2.03    0.41   79.43    6.03
 4678.98 1867.23 3598.51    1.62    1.76    2.04    0.41   81.37    6.05
 4679.14 1867.23 3598.66    1.68    1.84    2.03    0.42   83.98    6.01
 4679.29 1867.22 3598.82    1.73    1.88    2.04     0.4   82.67    6.04
 4679.44 1867.22 3598.97    1.78     1.9    2.03    0.39   80.01    6.04
 4679.59 1867.21 3599.12    1.79    1.93    2.01    0.39   81.67    6.08
 4679.75 1867.21 3599.27     1.8    1.96       2     0.4   84.38    6.18
  4679.9  1867.2 3599.43     1.8    1.99    1.99     0.4   87.38    6.19
 4680.05  1867.2 3599.58    1.82    2.03    1.99     0.4   86.02    6.18
  4680.2  1867.2 3599.73    1.83    2.05    1.99    0.39    82.7    6.18
 4680.36 1867.19 3599.88    1.86    2.06       2    0.39    80.3    6.16
 4680.51 1867.19 3600.03    1.86    2.05    2.02    0.39   82.86    6.09
 4680.66 1867.18 3600.19    1.85    2.02    2.02    0.39   83.56    5.99
 4680.81 1867.18 3600.34    1.83    2.02    2.02    0.38   82.26    5.96
 4680.97 1867.18 3600.49    1.83    2.02    2.02    0.38    82.3    5.96
 4681.12 1867.17 3600.64    1.84    2.02    2.03    0.38   80.78    5.98
 4681.27 1867.17  3600.8    1.85    2.03    2.04    0.39   83.83    6.01
 4681.42 1867.16 3600.95    1.87    2.03    2.04     0.4   88.08    6.01
 4681.58 1867.16  3601.1    1.88    2.03    2.04     0.4   86.49    6.03
 4681.73 1867.16 3601.25    1.89    2.04    2.04     0.4   86.02    6.13
 4681.88 1867.15 3601.41     1.9    2.07    2.06     0.4   85.02    6.19
 4682.03 1867.15 3601.56    1.92    2.09    2.08     0.4   83.87    6.24
 4682.19 1867.14 3601.71    1.92    2.11     2.1    0.39   83.67    6.25
 4682.34 1867.14 3601.86    1.92    2.12     2.1    0.38   82.24    6.26
 4682.49 1867.13 3602.01     1.9    2.12     2.1    0.37   80.84    6.27
 4682.64 1867.13 3602.17    1.85    2.09    2.08    0.38   79.44    6.12
 4682.79 1867.13 3602.32    1.83    2.07    2.05    0.37   80.62     6.1
 4682.95 1867.12 3602.47    1.79    2.06    2.03    0.37   81.48    6.03
  4683.1 1866.57 3602.61    1.78    2.07    2.02    0.39   82.13    5.95
 4683.25 1866.57 3602.76    1.78    2.08    2.02     0.4   80.06    5.93
  4683.4 1866.56 3602.91    1.79    2.11    2.02    0.41   78.53    5.93
 4683.56 1866.55 3603.07     1.8    2.12    2.02     0.4   82.28    5.94
 4683.71 1866.54 3603.22    1.79    2.12    2.02     0.4   86.38    6.05
 4683.86 1866.54 3603.37    1.77    2.11    2.03     0.4   84.51    6.09
 4684.01 1866.53 3603.52    1.74    2.09    2.02     0.4   83.45    6.13
 4684.17 1866.52 3603.68    1.73    2.08    2.02     0.4   82.85    6.16
 4684.32 1866.51 3603.83    1.73    2.07    2.02     0.4   82.39    6.16
 4684.47 1866.51 3603.98    1.74    2.06    2.02    0.41   83.67    6.12
 4684.62  1866.5 3604.13    1.75    2.04    2.02     0.4   83.92    6.11
 4684.78 1866.49 3604.28    1.75    2.03    2.03    0.41   82.22    6.11
 4684.93 1866.48 3604.44    1.75    2.03    2.03    0.42   80.92    5.99
 4685.08 1866.48 3604.59    1.74    2.03    2.04    0.44   79.24    5.94
 4685.23 1866.47 3604.74    1.73    2.03    2.04    0.42   76.74    5.96
 4685.39 1866.46 3604.89    1.71    2.04    2.03    0.42    79.2    5.98
 4685.54 1866.45 3605.05     1.7    2.06    2.02    0.41    79.2    6.05
 4685.69 1866.45  3605.2    1.71    2.05    2.02    0.41    81.6    6.07
 4685.84 1866.44 3605.35    1.72    2.04    2.03     0.4   79.83    6.11
    4686 1866.43  3605.5    1.72    2.07    2.06    0.41   79.58    6.13
 4686.15 1866.42 3605.65    1.72    2.06     2.1    0.41   80.77    6.16
  4686.3 1866.42 3605.81    1.71    2.01    2.12     0.4   81.11    6.17
 4686.45 1866.41 3605.96    1.68       2     2.1    0.38    78.4    6.23
  4686.6  1866.4 3606.11    1.66    1.97    2.05    0.38   77.48    6.21
 4686.76 1866.39 3606.26    1.64    1.92    2.03    0.38   76.21    6.08
 4686.91 1866.38 3606.42    1.63    1.91    2.02     0.4   77.29    6.04
 4687.06 1866.38 3606.57    1.64    1.92    2.02     0.4   75.36    5.99
 4687.21 1866.37 3606.72    1.64    1.92    2.01    0.41   73.61    5.96
 4687.37 1866.36 3606.87    1.64    1.92    2.01    0.41   77.48       6
 4687.52 1866.35 3607.02    1.64    1.92    2.02     0.4    77.2    6.07
 4687.67 1866.35 3607.18    1.65    1.92    2.03    0.39   79.64    6.09
 4687.82 1866.34 3607.33    1.65    1.92    2.04    0.39   76.89    6.13
 4687.98 1866.33 3607.48    1.65    1.92    2.04     0.4   75.25    6.17
 4688.13 1866.32 3607.63    1.66    1.92    2.05    0.41   76.23    6.19
 4688.28 1866.32 3607.79    1.66    1.92    2.05     0.4   76.08    6.24
 4688.43 1866.31 3607.94    1.66    1.92    2.06     0.4   75.21    6.24
 4688.59  1866.3 3608.09    1.66    1.92    2.07    0.39   73.76    6.24
 4688.74 1866.29 3608.24    1.66    1.92    2.07     0.4   75.03     6.2
 4688.89 1866.29 3608.39    1.66    1.94    2.07     0.4   75.24    6.14
 4689.04 1866.28 3608.55    1.68    1.95    2.06    0.41   74.54    6.04
  4689.2 1866.27  3608.7    1.69    1.96    2.05    0.41   71.93    6.04
 4689.35 1866.26 3608.85    1.71    1.97    2.05    0.41   71.71    6.08
  4689.5 1866.26    3609    1.72    1.98    2.05    0.42   70.88    6.09
 4689.65 1866.25 3609.16    1.74    1.99    2.05    0.42   73.13    6.13
 4689.81 1866.24 3609.31    1.75    2.01    2.04    0.43   74.95    6.15
 4689.96 1866.23 3609.46    1.78    2.03    2.04    0.43   75.61    6.15
 4690.11 1866.23 3609.61    1.79    2.07    2.04    0.43   76.82    6.19
 4690.26 1866.22 3609.76    1.82    2.09    2.04    0.42   75.24    6.26
 4690.41 1866.21 3609.92    1.82     2.1    2.03    0.42   74.13    6.25
 4690.57  1866.2 3610.07    1.83     2.1    2.01    0.43   72.74    6.24
 4690.72  1866.2 3610.22    1.83     2.1       2    0.43   70.15    6.24
 4690.87 1866.19 3610.37    1.83    2.14       2    0.43   74.05     6.2
 4691.02 1866.18 3610.53    1.84    2.17       2    0.42   79.71    6.15
 4691.18 1866.17 3610.68    1.86    2.25       2    0.43   81.26    6.05
 4691.33 1866.17 3610.83    1.91    2.32    1.99    0.42   79.52    6.04
 4691.48 1866.16 3610.98    1.96    2.37    1.99    0.42   79.34    6.07
 4691.63 1866.15 3611.13    2.05    2.38    1.99    0.41    80.4    6.06
