# LAS format log file from PETREL
# Project units are specified as depth units
#==================================================================
~Version information
VERS.   2.0:
WRAP.   NO:
#==================================================================
~Well
STRT .m           3250.08 :
STOP .m           4804.87 :
STEP .m            0.1524 :
NULL .        -999.250000 :
COMP.                     : COMPANY
WELL.            WELLB-32 : WELL
FLD.                      : FIELD
LOC.                      : LOCATION
SRVC.                     : SERVICE COMPANY
DATE.  Wednesday, March 31 2010 12:32:47   : DATE
PROV.                     : PROVINCE
UWI.                      : UNIQUE WELL ID
API.                      : API NUMBER
#==================================================================
~Curve
DEPT .m                   : DEPTH
TVD  .m                   : TRUE VERTICAL DEPTH
HRZDISP .m                : HORIZONTAL DISPLACEMENT
ILM .ohm.m                : ILM
ILD .ohm.m                : ILD
RHOB .g/cm3               : RHOB
NPHI .m3/m3               : NPHI
GR .gAPI                  : GR
CALI .in                  : CALI
~Parameter
#==================================================================
#DEPT    TVD     HRZDISP      ILM        ILD        RHOB       NPHI       GR         CALI
~Ascii
# ...
 4574.44 1868.28 3494.02   20.07   18.55    2.03     0.4   77.43    5.61
 4574.59 1868.28 3494.17   20.41   19.12    2.04    0.39      76    5.71
 4574.74 1868.29 3494.32   20.93   19.74    2.04    0.38   77.62     5.8
  4574.9 1868.29 3494.48   21.53   20.31    2.06    0.39   74.17    5.61
 4575.05  1868.3 3494.63   22.27   20.84    2.07     0.4   77.39    5.63
  4575.2  1868.3 3494.78   22.78   21.13    2.08    0.41   75.63    5.75
 4575.35  1868.3 3494.93   22.55    20.9    2.08    0.41   77.56    5.96
 4575.51 1868.31 3495.08   22.47    20.6    2.07    0.41   75.99       6
 4575.66 1868.31 3495.24   22.54   19.91    2.08     0.4   79.35    5.86
 4575.81 1868.31 3495.39   22.52   18.52    2.07     0.4   79.08    5.76
 4575.96 1868.32 3495.54   20.26   18.11    2.07    0.41   77.97    5.75
 4576.11 1868.32 3495.69   18.96   17.95    2.07    0.44   76.64    5.79
 4576.27 1868.33 3495.85   19.13   17.28    2.07    0.45   80.88    5.93
 4576.42 1868.33    3496   19.27   16.12    2.07    0.44   80.88    6.03
 4576.57 1868.33 3496.15   17.99   15.61    2.07    0.42   81.78    6.03
 4576.72 1868.34  3496.3   17.22   16.06    2.07    0.42   78.11    6.13
 4576.88 1868.34 3496.46   17.76    16.5    2.04    0.42   79.35    6.19
 4577.03 1868.44 3496.61   18.12   16.53    2.01    0.41   77.29    6.08
 4577.18 1868.44 3496.76   18.19   16.49    1.99     0.4   78.95    6.02
 4577.33 1868.45 3496.92   18.37   16.73    1.98    0.42   78.51    6.03
 4577.49 1868.45 3497.07   18.71   17.17    1.99    0.43   74.96    6.03
 4577.64 1868.45 3497.22   18.88   17.64    1.99    0.43    74.4    6.06
 4577.79 1868.46 3497.37   18.97   17.85       2    0.41   72.45    6.03
 4577.94 1868.46 3497.53   18.96   17.94    1.99    0.41   74.07    6.03
  4578.1 1868.47 3497.68   19.01   17.89    1.99     0.4   71.27     5.9
 4578.25 1868.47 3497.83   18.92    17.7       2     0.4   75.56    5.94
  4578.4 1868.48 3497.98   18.78   17.72    2.02    0.39   77.48    6.03
 4578.55 1868.48 3498.13   18.69   17.73    2.03    0.39   77.33    6.03
 4578.71 1868.48 3498.29   18.71   17.68    2.03    0.39   70.58     6.1
 4578.86 1868.49 3498.44   18.78    17.6    2.03     0.4    71.3    5.99
 4579.01 1868.49 3498.59   18.61   17.54    2.04    0.43   72.56     5.9
 4579.16  1868.5 3498.74   18.26   17.36    2.04    0.45   74.92     5.9
 4579.32  1868.5  3498.9   17.85   17.19    2.06    0.44   72.13    5.92
 4579.47 1868.51 3499.05   17.53   17.15    2.08    0.41   72.86    5.98
 4579.62 1868.51  3499.2   17.41   17.06     2.1     0.4   74.44    6.03
 4579.77 1868.52 3499.35   17.34   16.78     2.1    0.42   73.05     5.9
 4579.92 1868.52 3499.51   17.05   16.58     2.1    0.44   71.07    5.89
 4580.08 1868.52 3499.66   16.51   16.43     2.1    0.44   68.77    5.91
 4580.23 1868.53 3499.81   16.13   16.13     2.1    0.43   70.78    5.89
 4580.38 1868.53 3499.96   15.94   15.77     2.1    0.43   70.53    5.89
 4580.53 1868.54 3500.11   15.68   15.45    2.09    0.44    72.7    5.89
 4580.69 1868.54 3500.27   15.19   15.16    2.07    0.45   73.71    5.91
 4580.84 1868.55 3500.42   14.69   14.84    2.07    0.44   75.69    5.94
 4580.99 1868.55 3500.57   14.28   14.62    2.07    0.42   75.91       6
 4581.14 1868.55 3500.72   13.98   14.39    2.07    0.39   73.72    5.99
  4581.3 1868.56 3500.88   13.71   14.07    2.07    0.42   76.54     5.9
 4581.45 1868.56 3501.03   13.27   13.73    2.07    0.42    76.2    5.89
  4581.6 1868.57 3501.18   12.83    13.4    2.07    0.43    77.9    5.89
 4581.75 1868.57 3501.33   12.55   13.09    2.08    0.44   74.46    5.89
 4581.91 1868.58 3501.49   12.26   12.84    2.07    0.45   74.05     5.9
 4582.06 1868.58 3501.64   12.07   12.65    2.07    0.49   73.59    5.97
 4582.21 1868.58 3501.79   11.96   12.44    2.07    0.46   71.12    5.98
 4582.36 1868.59 3501.94    11.8   12.34    2.09    0.46    71.2    6.05
 4582.52 1868.59  3502.1   11.67   12.33    2.09    0.44   71.07    6.17
 4582.67  1868.6 3502.25   11.69    12.3     2.1    0.45   70.85    6.04
 4582.82  1868.6  3502.4   11.74   12.26     2.1    0.45    67.5    6.04
 4582.97 1868.61 3502.55   11.66   12.24    2.11    0.46   67.15    6.17
 4583.13 1868.61  3502.7   11.56   12.34    2.11    0.45   69.77    6.25
 4583.28 1868.61 3502.86   11.53    12.4     2.1    0.45   72.88    6.18
 4583.43 1868.62 3503.01   11.63   12.48    2.09    0.45   72.74    5.88
 4583.58 1868.62 3503.16   11.82   12.53    2.09    0.45   72.53    5.97
 4583.73 1868.63 3503.31   11.85   12.59    2.08    0.44   72.94    6.23
 4583.89 1868.63 3503.47   11.82   12.61    2.05    0.43   72.93    6.17
 4584.04 1868.64 3503.62   11.84    12.6    2.05    0.43   76.44     6.1
 4584.19 1868.64 3503.77   11.91   12.58    2.06    0.42   75.63    6.04
 4584.34 1868.64 3503.92   11.92   12.45    2.08    0.43   75.38    6.06
  4584.5 1868.65 3504.08   11.78   12.22    2.09    0.43   75.11    6.05
 4584.65 1868.65 3504.23   11.47   12.01    2.09    0.43   75.19    6.08
  4584.8 1868.66 3504.38   11.22   11.72    2.09    0.42   77.27    6.09
 4584.95 1868.66 3504.53   10.96   11.33    2.09    0.43      75    6.15
 4585.11 1868.67 3504.69   10.58    11.1    2.09    0.43   77.08    6.14
 4585.26 1868.67 3504.84   10.26   11.05    2.08    0.42   76.42    6.17
 4585.41 1868.67 3504.99   10.22      11    2.09    0.43   77.29    6.12
 4585.56 1868.68 3505.14   10.32   10.95    2.08    0.43   81.09    5.99
 4585.72 1868.68 3505.29   10.34   10.86    2.07    0.44   82.13       6
 4585.87 1868.69 3505.45   10.35   10.89    2.06    0.43   80.29    6.06
 4586.02 1868.69  3505.6   10.45   10.97    2.06    0.45   70.79    6.05
 4586.17  1868.7 3505.75   10.47      11    2.05    0.44   69.03    6.04
 4586.33  1868.7  3505.9   10.46   10.99    2.05    0.43   69.31    6.05
 4586.48 1868.71 3506.06   10.46   10.98    2.05    0.41   71.41    6.13
 4586.63 1868.71 3506.21   10.49   10.96    2.05    0.43   71.48    6.17
 4586.78 1868.71 3506.36   10.53    10.9    2.06    0.43   73.96    6.17
 4586.94 1868.72 3506.51   10.53   10.83    2.07    0.42   78.48    6.17
 4587.09 1868.72 3506.67   10.45   10.76    2.07     0.4   76.83    6.12
 4587.24 1868.73 3506.82   10.34   10.68    2.07     0.4   76.75    6.13
 4587.39 1868.73 3506.97   10.24    10.6    2.06    0.43   75.54    6.03
 4587.54 1868.74 3507.12   10.13   10.48    2.06    0.45   78.72    6.05
  4587.7 1868.74 3507.28   10.02   10.41    2.06    0.45    77.1    6.08
 4587.85 1868.74 3507.43   10.09   10.31    2.07    0.44   70.13    6.06
    4588 1868.75 3507.58   10.27   10.29    2.07    0.42   68.22     6.1
 4588.15 1868.75 3507.73   10.41   10.33    2.07    0.42   71.17    6.17
 4588.31 1868.76 3507.88   10.55   10.35    2.06    0.42   76.23    6.17
 4588.46 1868.76 3508.04   10.65    10.4    2.05    0.41   78.55    6.17
 4588.61 1868.77 3508.19   10.71   10.57    2.06    0.43   74.21    6.17
 4588.76 1868.77 3508.34   10.71   10.59    2.05    0.43   75.94    6.17
 4588.92 1868.77 3508.49   10.69   10.62    2.03    0.48   74.03    6.17
 4589.07 1868.78 3508.65   10.69   10.64    2.01    0.45    72.3    6.17
 4589.22 1868.78  3508.8   10.68   10.63    2.01    0.43    72.3    6.17
 4589.37 1868.79 3508.95   10.67   10.61    2.03    0.41   73.58    6.14
 4589.53 1868.79  3509.1    10.7   10.62    2.07    0.42    77.4    6.08
 4589.68  1868.8 3509.26   10.72   10.65    2.09    0.43   75.76    6.03
 4589.83  1868.8 3509.41   10.75   10.68    2.09    0.43   73.13    6.03
 4589.98  1868.8 3509.56    10.8   10.74    2.08    0.44   73.28    6.03
 4590.14 1868.81 3509.71   10.76    10.8    2.07    0.41   70.53    6.04
 4590.29 1868.81 3509.87   10.64    10.8    2.06    0.42   72.63    6.08
 4590.44 1868.82 3510.02   10.55    10.8    2.07     0.4   68.66    6.12
 4590.59 1868.82 3510.17   10.54   10.78    2.07    0.44   71.68    6.15
 4590.75 1868.83 3510.32   10.52   10.65    2.08    0.44   70.95    6.18
  4590.9 1868.83 3510.47   10.28   10.44    2.08    0.45   76.71    6.25
 4591.05 1868.83 3510.63    9.76   10.34    2.08    0.43   75.52    6.27
