# LAS format log file from PETREL
# Project units are specified as depth units
#==================================================================
~Version information
VERS.   2.0:
WRAP.   NO:
#==================================================================
~Well
STRT .m           3250.08 :
STOP .m           4804.87 :
STEP .m            0.1524 :
NULL .        -999.250000 :
COMP.                     : COMPANY
WELL.            WELLB-32 : WELL
FLD.                      : FIELD
LOC.                      : LOCATION
SRVC.                     : SERVICE COMPANY
DATE.  Wednesday, March 31 2010 12:32:47   : DATE
PROV.                     : PROVINCE
UWI.                      : UNIQUE WELL ID
API.                      : API NUMBER
#==================================================================
~Curve
DEPT .m                   : DEPTH
TVD  .m                   : TRUE VERTICAL DEPTH
HRZDISP .m                : HORIZONTAL DISPLACEMENT
ILM .ohm.m                : ILM
ILD .ohm.m                : ILD
RHOB .g/cm3               : RHOB
NPHI .m3/m3               : NPHI
GR .gAPI                  : GR
CALI .in                  : CALI
~Parameter
#==================================================================
#DEPT    TVD     HRZDISP      ILM        ILD        RHOB       NPHI       GR         CALI
~Ascii
# ...
 4775.61 1861.73 3694.98    9.61    7.83    2.36    0.37 -999.25     5.7
 4775.76 1861.72 3695.13    9.07    7.73    2.13    0.37 -999.25    5.67
 4775.91 1861.71 3695.28    8.18    7.77       2    0.37 -999.25    5.68
 4776.06  1861.7 3695.44    7.42    7.73    1.95    0.37 -999.25    5.68
 4776.22  1861.7 3695.59    6.87    7.23    1.97    0.37 -999.25    5.68
 4776.37 1861.69 3695.74    6.63     6.5    1.99    0.37 -999.25    5.68
 4776.52 1861.68 3695.89    6.51    6.16    1.99    0.37 -999.25    5.68
 4776.67 1861.67 3696.04     6.2    6.48    1.99    0.37 -999.25    5.68
 4776.83 1861.66  3696.2    6.21    7.08    1.97    0.37 -999.25    5.68
 4776.98 1861.65 3696.35    6.21    7.48    1.99    0.37 -999.25    5.68
 4777.13 1861.65  3696.5     6.3    7.85    2.03    0.37 -999.25    5.67
 4777.28 1861.64 3696.65    6.86    8.49    2.05    0.37 -999.25    5.76
 4777.44 1861.63 3696.81    7.47    8.87    2.02    0.37 -999.25     5.8
 4777.59 1861.62 3696.96    8.63    8.36    2.01    0.37 -999.25    5.81
 4777.74 1861.61 3697.11    10.9    7.76    2.02    0.37 -999.25     5.8
 4777.89 1861.61 3697.26    9.02    7.48    2.03    0.37 -999.25    5.64
 4778.04  1861.6 3697.41    7.45    7.45    2.04    0.37 -999.25     5.6
  4778.2 1861.59 3697.57     6.8    7.51    2.02    0.37 -999.25    5.66
 4778.35 1861.58 3697.72    6.73    7.24       2    0.37 -999.25     5.7
  4778.5 1861.57 3697.87    6.47    6.74    1.98    0.37 -999.25     5.7
 4778.65 1861.56 3698.02    5.92    6.13    1.97    0.37 -999.25     5.7
 4778.81 1861.56 3698.17    5.56    5.75    1.98    0.37 -999.25     5.7
 4778.96 1861.55 3698.33    5.37    5.52    1.98    0.37 -999.25     5.7
 4779.11 1861.54 3698.48    5.25    5.41    1.99    0.37 -999.25     5.7
 4779.26 1861.53 3698.63    5.27    5.37    1.98    0.37 -999.25     5.7
 4779.42 1861.52 3698.78    5.31    5.35    1.98    0.37 -999.25     5.7
 4779.57 1861.52 3698.94    5.33    5.35    1.98    0.37 -999.25     5.7
 4779.72 1861.51 3699.09    5.31    5.33    1.98    0.37 -999.25     5.7
 4779.87  1861.5 3699.24     5.3     5.3    1.98    0.37 -999.25     5.7
 4780.03 1861.49 3699.39    5.28    5.26    1.98    0.37 -999.25    5.69
 4780.18 1861.48 3699.54    5.28    5.21    1.97    0.38 -999.25    4.39
 4780.33 1861.47  3699.7    5.26    5.15    1.96     0.4 -999.25    2.87
 4780.48 1861.47 3699.85    5.19    5.11    1.95     0.4 -999.25    2.87
 4780.64 1861.46    3700    5.13    5.07    1.96     0.4 -999.25    2.87
 4780.79 1861.45 3700.15    5.05    5.05    1.97     0.4 -999.25    2.87
 4780.94 1861.44 3700.31    4.94    5.06    1.97     0.4 -999.25    2.87
 4781.09 1861.43 3700.46    4.89    5.09    1.97     0.4 -999.25    2.87
 4781.25 1861.42 3700.61    4.94    5.13    1.97     0.4 -999.25    2.87
  4781.4 1861.42 3700.76    5.02    5.19    1.97     0.4 -999.25    2.87
 4781.55 1861.41 3700.91     5.1    5.21    1.97     0.4 -999.25    2.87
  4781.7  1861.4 3701.07    5.16     5.2    1.97     0.4 -999.25    2.87
 4781.85 1861.39 3701.22    5.16    5.23-2018.54-2020.11 -999.25 -999.25
 4782.01 1861.38 3701.37    5.07    5.25 -999.25 -999.25 -999.25 -999.25
 4782.16 1861.38 3701.52    5.02     5.3 -999.25 -999.25 -999.25 -999.25
 4782.31 1861.37 3701.67    5.05    5.37 -999.25 -999.25 -999.25 -999.25
 4782.46 1861.36 3701.83    5.09    5.36 -999.25 -999.25 -999.25 -999.25
 4782.62 1861.35 3701.98    5.11    5.29 -999.25 -999.25 -999.25 -999.25
 4782.77 1861.34 3702.13    5.12    5.24 -999.25 -999.25 -999.25 -999.25
 4782.92 1861.33 3702.28    5.09    5.19 -999.25 -999.25 -999.25 -999.25
 4783.07 1861.33 3702.44    5.02    5.16 -999.25 -999.25 -999.25 -999.25
 4783.23 1861.32 3702.59    4.99    5.15 -999.25 -999.25 -999.25 -999.25
 4783.38 1861.31 3702.74    5.02    5.14 -999.25 -999.25 -999.25 -999.25
 4783.53  1861.3 3702.89    5.05    5.12 -999.25 -999.25 -999.25 -999.25
 4783.68 1861.29 3703.04    5.04    5.11 -999.25 -999.25 -999.25 -999.25
 4783.84 1861.29  3703.2    5.04    5.11 -999.25 -999.25 -999.25 -999.25
 4783.99 1861.28 3703.35    5.14    5.15 -999.25 -999.25 -999.25 -999.25
 4784.14 1861.27  3703.5    5.32    5.23 -999.25 -999.25 -999.25 -999.25
 4784.29 1861.26 3703.65    5.66    5.33 -999.25 -999.25 -999.25 -999.25
 4784.45 1861.25  3703.8    6.06    5.49 -999.25 -999.25 -999.25 -999.25
  4784.6 1861.24 3703.96     6.5    5.75 -999.25 -999.25 -999.25 -999.25
 4784.75 1861.24 3704.11    6.97       6 -999.25 -999.25 -999.25 -999.25
  4784.9 1861.23 3704.26    7.58    6.27 -999.25 -999.25 -999.25 -999.25
 4785.06 1861.22 3704.41    7.94    6.45 -999.25 -999.25 -999.25 -999.25
 4785.21 1861.21 3704.57    8.12    6.48 -999.25 -999.25 -999.25 -999.25
 4785.36  1861.2 3704.72    8.03    6.54 -999.25 -999.25 -999.25 -999.25
 4785.51  1861.2 3704.87    7.65    6.64 -999.25 -999.25 -999.25 -999.25
 4785.66 1861.19 3705.02    6.91    6.57 -999.25 -999.25 -999.25 -999.25
 4785.82 1861.18 3705.17    6.42    6.47 -999.25 -999.25 -999.25 -999.25
 4785.97 1861.17 3705.33    6.12    6.29 -999.25 -999.25 -999.25 -999.25
 4786.12 1861.16 3705.48    5.97    6.05 -999.25 -999.25 -999.25 -999.25
 4786.27 1861.15 3705.63     5.8    5.78 -999.25 -999.25 -999.25 -999.25
 4786.43 1861.15 3705.78    5.63    5.48 -999.25 -999.25 -999.25 -999.25
 4786.58 1861.14 3705.93    5.47    5.33 -999.25 -999.25 -999.25 -999.25
 4786.73 1861.13 3706.09    5.35    5.26 -999.25 -999.25 -999.25 -999.25
 4786.88 1861.12 3706.24    5.26    5.21 -999.25 -999.25 -999.25 -999.25
 4787.04  1861.3 3706.41    5.17    5.19 -999.25 -999.25 -999.25 -999.25
 4787.19  1861.3 3706.56    5.13     5.2 -999.25 -999.25 -999.25 -999.25
 4787.34 1861.29 3706.71    5.11    5.21 -999.25 -999.25 -999.25 -999.25
 4787.49 1861.28 3706.87     5.1    5.21 -999.25 -999.25 -999.25 -999.25
 4787.65 1861.28 3707.02     5.1    5.23 -999.25 -999.25 -999.25 -999.25
  4787.8 1861.27 3707.17    5.11    5.23 -999.25 -999.25 -999.25 -999.25
 4787.95 1861.26 3707.32    5.13    5.23 -999.25 -999.25 -999.25 -999.25
  4788.1 1861.26 3707.47    5.16    5.26 -999.25 -999.25 -999.25 -999.25
 4788.26 1861.25 3707.63     5.2    5.31 -999.25 -999.25 -999.25 -999.25
 4788.41 1861.24 3707.78    5.25    5.39 -999.25 -999.25 -999.25 -999.25
 4788.56 1861.24 3707.93    5.32     5.5 -999.25 -999.25 -999.25 -999.25
 4788.71 1861.23 3708.08    5.43    5.53 -999.25 -999.25 -999.25 -999.25
 4788.87 1861.22 3708.24    5.46    5.53 -999.25 -999.25 -999.25 -999.25
 4789.02 1861.22 3708.39    5.43    5.53 -999.25 -999.25 -999.25 -999.25
 4789.17 1861.21 3708.54    5.39    5.53 -999.25 -999.25 -999.25 -999.25
 4789.32  1861.2 3708.69    5.29    5.53 -999.25 -999.25 -999.25 -999.25
 4789.47  1861.2 3708.84    5.21    5.53 -999.25 -999.25 -999.25 -999.25
 4789.63 1861.19    3709    5.09    5.53 -999.25 -999.25 -999.25 -999.25
 4789.78 1861.18 3709.15    5.05    5.53 -999.25 -999.25 -999.25 -999.25
 4789.93 1861.18  3709.3    5.05    5.53 -999.25 -999.25 -999.25 -999.25
 4790.08 1861.17 3709.45    5.05    5.53 -999.25 -999.25 -999.25 -999.25
 4790.24 1861.16 3709.61    5.05    5.52 -999.25 -999.25 -999.25 -999.25
 4790.39 1861.16 3709.76    5.05    5.52 -999.25 -999.25 -999.25 -999.25
 4790.54 1861.15 3709.91    5.05    5.52 -999.25 -999.25 -999.25 -999.25
 4790.69 1861.14 3710.06    5.05    5.52 -999.25 -999.25 -999.25 -999.25
 4790.85 1861.14 3710.22    5.05    5.52 -999.25 -999.25 -999.25 -999.25
    4791 1861.13 3710.37    5.05    5.52 -999.25 -999.25 -999.25 -999.25
 4791.15 1861.12 3710.52    5.05    5.52 -999.25 -999.25 -999.25 -999.25
  4791.3 1861.12 3710.67    5.05    5.52 -999.25 -999.25 -999.25 -999.25
 4791.46 1861.11 3710.82    5.05    5.52 -999.25 -999.25 -999.25 -999.25
 4791.61  1861.1 3710.98    5.05    5.52 -999.25 -999.25 -999.25 -999.25
 4791.76  1861.1 3711.13    5.05    5.52 -999.25 -999.25 -999.25 -999.25
 4791.91 1861.09 3711.28    5.05    5.52 -999.25 -999.25 -999.25 -999.25
 4792.07 1861.08 3711.43    5.05    5.52 -999.25 -999.25 -999.25 -999.25
 4792.22 1861.08 3711.59    5.05    5.52 -999.25 -999.25 -999.25 -999.25
