# LAS format log file from PETREL
# Project units are specified as depth units
#==================================================================
~Version information
VERS.   2.0:
WRAP.   NO:
#==================================================================
~Well
STRT .m           3250.08 :
STOP .m           4804.87 :
STEP .m            0.1524 :
NULL .        -999.250000 :
COMP.                     : COMPANY
WELL.            WELLB-32 : WELL
FLD.                      : FIELD
LOC.                      : LOCATION
SRVC.                     : SERVICE COMPANY
DATE.  Wednesday, March 31 2010 12:32:47   : DATE
PROV.                     : PROVINCE
UWI.                      : UNIQUE WELL ID
API.                      : API NUMBER
#==================================================================
~Curve
DEPT .m                   : DEPTH
TVD  .m                   : TRUE VERTICAL DEPTH
HRZDISP .m                : HORIZONTAL DISPLACEMENT
ILM .ohm.m                : ILM
ILD .ohm.m                : ILD
RHOB .g/cm3               : RHOB
NPHI .m3/m3               : NPHI
GR .gAPI                  : GR
CALI .in                  : CALI
~Parameter
#==================================================================
#DEPT    TVD     HRZDISP      ILM        ILD        RHOB       NPHI       GR         CALI
~Ascii
# ...
 4272.69 1864.99 3192.39   50.75 -999.25    1.94    0.41   65.75    9.42
 4272.84 1864.99 3192.54   51.46 -999.25    1.93    0.41    69.9    9.42
 4272.99 1864.99  3192.7   51.63 -999.25    1.93     0.4   78.07    9.42
 4273.14 1864.99 3192.85   51.63 -999.25    1.93     0.4   79.83    9.45
  4273.3 1864.99    3193   50.28 -999.25    1.93    0.43   98.47    9.47
 4273.45 1864.99 3193.15   54.14 -999.25    1.94    0.42   99.15    9.47
  4273.6 1864.99 3193.31   50.03 -999.25    1.95     0.4   89.33    9.44
 4273.75 1864.99 3193.46    51.2 -999.25    1.95    0.38   78.12    9.41
 4273.91 1864.98 3193.61   50.68 -999.25    1.95    0.39   76.67    9.41
 4274.06 1864.98 3193.76    51.2 -999.25    1.94    0.39   75.08    9.44
 4274.21 1864.98 3193.92    51.2 -999.25    1.94    0.38   74.31    9.42
 4274.36 1864.98 3194.07   52.27 -999.25    1.95    0.38   73.89     9.4
 4274.52 1864.98 3194.22      52 -999.25    1.95    0.42   72.81    9.35
 4274.67 1864.98 3194.37   52.28 -999.25    1.96    0.41   72.82    9.35
 4274.82 1864.98 3194.53   53.11 -999.25    1.97    0.41   77.33    9.35
 4274.97 1864.98 3194.68   53.66 -999.25    1.98    0.39   75.08    9.34
 4275.12 1864.98 3194.83   52.55 -999.25    1.98     0.4    74.4    9.33
 4275.28 1864.98 3194.98   55.66 -999.25    1.97     0.4    73.5    9.34
 4275.43 1864.97 3195.14   53.96 -999.25    1.97    0.39   73.24    9.38
 4275.58 1864.97 3195.29   55.75 -999.25    1.97    0.38   72.91    9.38
 4275.73 1864.97 3195.44   51.73 -999.25    1.97     0.4   70.18    9.38
 4275.89 1864.97 3195.59   54.37 -999.25    1.98    0.41   71.93    9.38
 4276.04 1864.97 3195.74   54.37 -999.25    1.98    0.42   70.31    9.39
 4276.19 1864.97  3195.9   53.79 -999.25    1.98    0.43    70.5    9.44
 4276.34 1864.97 3196.05   54.37 -999.25    1.98    0.43   69.32    9.46
  4276.5 1864.97  3196.2   53.79 -999.25    1.99    0.43   68.11    9.46
 4276.65 1864.97 3196.35   53.22 -999.25    1.98    0.41   69.02    9.45
  4276.8 1864.96 3196.51   54.37 -999.25    1.98    0.42   70.18    9.38
 4276.95 1864.96 3196.66   54.37 -999.25    1.98     0.4   71.82    9.37
 4277.11 1864.96 3196.81   54.36 -999.25    1.98    0.39   72.03    9.35
 4277.26 1864.96 3196.96   53.22 -999.25    1.98    0.38   72.07    9.37
 4277.41 1864.96 3197.12   55.24 -999.25    1.98     0.4   72.86    9.43
 4277.56 1864.96 3197.27   51.71 -999.25    1.99    0.41    72.6    9.46
 4277.72 1864.96 3197.42    52.1 -999.25    1.99    0.41   74.07    9.47
 4277.87 1864.96 3197.57   53.08 -999.25    1.98     0.4   86.45    9.45
 4278.02 1864.96 3197.73   53.21 -999.25    1.98    0.38   86.48    9.46
 4278.17 1864.96 3197.88   52.38 -999.25    1.97    0.38   86.48    9.48
 4278.33 1864.95 3198.03   51.17 -999.25    1.97     0.4   86.48    9.48
 4278.48 1864.95 3198.18   50.52 -999.25    1.96    0.41   86.48     9.5
 4278.63 1864.95 3198.34   50.52 -999.25    1.95    0.41   86.48    9.53
 4278.78 1864.95 3198.49   50.95 -999.25    1.94     0.4   86.48    9.53
 4278.93 1864.95 3198.64   51.04 -999.25    1.95    0.39   86.48    9.54
 4279.09 1864.95 3198.79   52.21 -999.25    1.96    0.38   86.48    9.52
 4279.24 1864.95 3198.95   51.67 -999.25    1.96    0.38   86.48    9.48
 4279.39 1864.95  3199.1   53.04 -999.25    1.97    0.38   86.48    9.48
 4279.54 1864.95 3199.25   52.63 -999.25    1.97     0.4   86.48    9.48
  4279.7 1864.95  3199.4   52.22 -999.25    1.97    0.41   86.48     9.5
 4279.85 1864.94 3199.56   54.28 -999.25    1.97    0.41   86.48    9.58
    4280 1864.94 3199.71   54.33 -999.25    1.97     0.4   86.48    9.65
 4280.15 1864.94 3199.86   54.48 -999.25    1.97     0.4   86.48    9.63
 4280.31 1864.94 3200.01   54.78 -999.25    1.97    0.39   86.48     9.6
 4280.46 1864.94 3200.17   54.63 -999.25    1.97    0.38   86.48    9.59
 4280.61 1864.94 3200.32   54.48 -999.25    1.97    0.37   86.48     9.6
 4280.76 1864.94 3200.47   53.04 -999.25    1.96    0.38   86.48     9.6
 4280.92 1864.94 3200.62   53.61 -999.25    1.96    0.38   86.48    9.63
 4281.07 1864.94 3200.77   55.38 -999.25    1.95    0.41   86.48    9.74
 4281.22 1864.93 3200.93   53.04 -999.25    1.95    0.42 -999.25    9.83
 4281.37 1864.93 3201.08    51.4 -999.25    1.95    0.42 -999.25    9.94
 4281.53 1864.93 3201.23   52.76 -999.25    1.95     0.4 -999.25     9.9
 4281.68 1864.93 3201.38   53.32 -999.25    1.96    0.39 -999.25    9.81
 4281.83 1864.93 3201.54   53.18 -999.25    1.96    0.38 -999.25    9.67
 4281.98 1864.93 3201.69   48.14 -999.25    1.96    0.38 -999.25    9.48
 4282.14 1864.93 3201.84   48.15 -999.25    1.96    0.38 -999.25    9.37
 4282.29 1864.93 3201.99   51.94 -999.25    1.96    0.39 -999.25    9.33
 4282.44 1864.93 3202.15    51.8 -999.25    1.97     0.4 -999.25    9.26
 4282.59 1864.93  3202.3   51.67 -999.25    1.97     0.4 -999.25    9.26
 4282.74 1864.92 3202.45   51.14 -999.25    1.96     0.4 -999.25     9.3
  4282.9 1864.92  3202.6   51.71 -999.25    1.95     0.4 -999.25    9.36
 4283.05 1864.92 3202.76    52.2 -999.25    1.95    0.38 -999.25    9.44
  4283.2 1864.92 3202.91   52.78 -999.25    1.96    0.39 -999.25     9.5
 4283.35 1864.92 3203.06      51 -999.25    1.96    0.41 -999.25    9.56
 4283.51 1864.92 3203.21   51.64 -999.25    1.97    0.43 -999.25    9.65
 4283.66 1864.92 3203.37   49.44 -999.25    1.97    0.43 -999.25    9.69
 4283.81 1864.92 3203.52   51.31 -999.25    1.98    0.41 -999.25    9.69
 4283.96 1864.92 3203.67   50.36 -999.25    1.97     0.4 -999.25    9.63
 4284.12 1864.91 3203.82   50.36 -999.25    1.97    0.39 -999.25    9.56
 4284.27 1864.91 3203.98   50.65 -999.25    1.98    0.39 -999.25    9.49
 4284.42 1864.91 3204.13   50.67 -999.25       2    0.38 -999.25    9.41
 4284.57 1864.91 3204.28   50.75 -999.25    2.01     0.4 -999.25    9.36
 4284.73 1864.91 3204.43   50.68 -999.25    2.02     0.4 -999.25    9.35
 4284.88 1864.91 3204.59   49.89 -999.25    2.01    0.42 -999.25    9.34
 4285.03 1864.91 3204.74   49.49 -999.25    2.01    0.41 -999.25    9.32
 4285.18 1864.91 3204.89   49.92 -999.25       2    0.41 -999.25    9.32
 4285.34 1864.91 3205.04   49.22 -999.25    1.99    0.39 -999.25    9.33
 4285.49 1864.91  3205.2   48.23 -999.25    1.97    0.38 -999.25    9.37
 4285.64  1864.9 3205.35   48.22 -999.25    1.95    0.38 -999.25    9.44
 4285.79  1864.9  3205.5   48.25 -999.25    1.94    0.38 -999.25    9.46
 4285.95  1864.9 3205.65   47.01 -999.25    1.94    0.39 -999.25    9.47
  4286.1  1864.9  3205.8   46.85 -999.25    1.95    0.39 -999.25    9.48
 4286.25  1864.9 3205.96   46.88 -999.25    1.97    0.41 -999.25    9.47
  4286.4  1864.9 3206.11    46.8 -999.25    1.99    0.39 -999.25    9.48
 4286.55  1864.9 3206.26   45.84 -999.25       2    0.38 -999.25    9.59
 4286.71  1864.9 3206.41   46.36 -999.25       2    0.37 -999.25     9.5
 4286.86  1864.9 3206.57   46.52 -999.25    2.01    0.37 -999.25    9.49
 4287.01 1864.29  3206.7   46.54 -999.25    1.99    0.38 -999.25    9.47
 4287.16 1864.29 3206.85   46.65 -999.25       2    0.38 -999.25    9.45
 4287.32 1864.28    3207   46.02 -999.25       2    0.41 -999.25    9.44
 4287.47 1864.28 3207.16   46.58 -999.25       2    0.41 -999.25    9.48
 4287.62 1864.27 3207.31   46.58 -999.25       2    0.42 -999.25    9.54
 4287.77 1864.27 3207.46   48.23 -999.25    2.01     0.4 -999.25    9.53
 4287.93 1864.26 3207.61   49.71 -999.25    2.03    0.38 -999.25    9.51
 4288.08 1864.26 3207.77   49.84 -999.25    2.04    0.38 -999.25    9.42
 4288.23 1864.25 3207.92   49.59 -999.25    2.04    0.36 -999.25    9.38
 4288.38 1864.25 3208.07   48.85 -999.25    2.03    0.38 -999.25    9.38
 4288.54 1864.25 3208.22   48.99 -999.25    2.01    0.37 -999.25    9.38
 4288.69 1864.24 3208.38   49.59 -999.25    2.01    0.38 -999.25     9.4
 4288.84 1864.24 3208.53   49.09 -999.25       2    0.38 -999.25    9.47
 4288.99 1864.23 3208.68   51.39 -999.25       2    0.37 -999.25    9.51
 4289.15 1864.23 3208.83   51.39 -999.25    1.99    0.37 -999.25    9.58
  4289.3 1864.22 3208.98   49.36 -999.25    1.99    0.37 -999.25    9.61
