# LAS format log file from PETREL
# Project units are specified as depth units
#==================================================================
~Version information
VERS.   2.0:
WRAP.   NO:
#==================================================================
~Well
STRT .m           3250.08 :
STOP .m           4804.87 :
STEP .m            0.1524 :
NULL .        -999.250000 :
COMP.                     : COMPANY
WELL.            WELLB-32 : WELL
FLD.                      : FIELD
LOC.                      : LOCATION
SRVC.                     : SERVICE COMPANY
DATE.  Wednesday, March 31 2010 12:32:47   : DATE
PROV.                     : PROVINCE
UWI.                      : UNIQUE WELL ID
API.                      : API NUMBER
#==================================================================
~Curve
DEPT .m                   : DEPTH
TVD  .m                   : TRUE VERTICAL DEPTH
HRZDISP .m                : HORIZONTAL DISPLACEMENT
ILM .ohm.m                : ILM
ILD .ohm.m                : ILD
RHOB .g/cm3               : RHOB
NPHI .m3/m3               : NPHI
GR .gAPI                  : GR
CALI .in                  : CALI
~Parameter
#==================================================================
#DEPT    TVD     HRZDISP      ILM        ILD        RHOB       NPHI       GR         CALI
~Ascii
# ...
 4071.52 1868.97 2991.29   30.28 -999.25    1.64    0.65    52.5    9.23
 4071.67 1868.96 2991.44   38.77 -999.25    1.72    0.65   51.56    9.23
 4071.82 1868.96 2991.59   38.78 -999.25    1.73    0.64   49.81    9.22
 4071.98 1868.95 2991.75  398.74 -999.25    1.74    0.63   50.72    9.24
 4072.13 1868.74 2991.89  398.74 -999.25    1.75    0.63   52.72    9.26
 4072.28 1868.74 2992.05   67.67 -999.25    1.74    0.64    54.6    9.31
 4072.43 1868.73  2992.2   83.14 -999.25    1.72    0.68   53.27    9.35
 4072.59 1868.72 2992.35   35.47 -999.25    1.69    0.66   51.73    9.38
 4072.74 1868.72  2992.5   42.59 -999.25    1.67    0.63   49.84     9.4
 4072.89 1868.71 2992.66    49.7 -999.25    1.65    0.59   48.74    9.41
 4073.04  1868.7 2992.81    43.1 -999.25    1.62    0.62   48.08    9.41
 4073.19  1868.7 2992.96   30.28 -999.25     1.6    0.62   49.95    9.41
 4073.35 1868.69 2993.11   24.08   14.81     1.6    0.63   50.14    9.41
  4073.5 1868.69 2993.26   18.75   55.34    1.59    0.61   51.97     9.4
 4073.65 1868.68 2993.42   13.27   30.18     1.6     0.6   52.72    9.39
  4073.8 1868.67 2993.57   13.27   30.17    1.63    0.59   51.68    9.38
 4073.96 1868.67 2993.72   10.41   24.81    1.67    0.59    50.2     9.3
 4074.11 1868.66 2993.87    9.69   25.67    1.68    0.62   50.73     9.3
 4074.26 1868.65 2994.03   10.94   19.38    1.66     0.6   51.77    9.29
 4074.41 1868.65 2994.18    9.94   19.06     1.6     0.6   50.93    9.33
 4074.57 1868.64 2994.33    8.56   17.92    1.52    0.63   52.66    9.32
 4074.72 1868.63 2994.48    7.93   16.37    1.43    0.65   47.73    9.32
 4074.87 1868.63 2994.63    6.79   13.93    1.35    0.68   41.82    9.29
 4075.02 1868.62 2994.79    6.59   13.38    1.29    0.65   39.37    9.22
 4075.18 1868.61 2994.94    6.19   12.27    1.27    0.65   35.13    9.23
 4075.33 1868.61 2995.09    6.19   12.27    1.26    0.63   33.62    9.19
 4075.48  1868.6 2995.24    5.83   11.12    1.26    0.63   36.36    9.19
 4075.63  1868.6  2995.4    5.83   11.11    1.27    0.68    34.8    9.19
 4075.79 1868.59 2995.55    5.55   10.54    1.28     0.7   35.52    9.21
 4075.94 1868.58  2995.7    4.46     8.9    1.29     0.7   35.26    9.22
 4076.09 1868.58 2995.85    3.58    7.14    1.28    0.66   33.81    9.23
 4076.24 1868.57    2996    3.68    7.04    1.27    0.67   32.35    9.22
  4076.4 1868.56 2996.16     3.9    6.91    1.27    0.67   31.43    9.23
 4076.55 1868.56 2996.31    4.04    7.06    1.28    0.65   33.23    9.22
  4076.7 1868.55 2996.46    4.26    7.54    1.28    0.61   33.84    9.22
 4076.85 1868.54 2996.61    4.27    7.41    1.29    0.59   35.27     9.2
    4077 1868.54 2996.77    4.31    7.03    1.29    0.61   36.29     9.2
 4077.16 1868.53 2996.92    4.43    7.14     1.3     0.6   34.79     9.2
 4077.31 1868.52 2997.07    4.43    7.14    1.31    0.63   36.83    9.21
 4077.46 1868.52 2997.22    4.57    7.12    1.32    0.66   38.15    9.22
 4077.61 1868.51 2997.38    4.52    7.05    1.35    0.67   35.09    9.22
 4077.77 1868.51 2997.53    4.62     7.6    1.38    0.68   38.99    9.22
 4077.92  1868.5 2997.68    4.46    8.13     1.4    0.67   39.92    9.22
 4078.07 1868.49 2997.83    4.19    8.02    1.41    0.68   41.72    9.24
 4078.22 1868.49 2997.98    5.15   10.63    1.39    0.65   42.71    9.24
 4078.38 1868.48 2998.14    5.42   12.39    1.35    0.61   42.66    9.26
 4078.53 1868.47 2998.29    4.22    7.73    1.32    0.59   43.03    9.24
 4078.68 1868.47 2998.44    4.83   10.69    1.35    0.61   46.34    9.25
 4078.83 1868.46 2998.59    4.83   10.69    1.43    0.67   48.12    9.24
 4078.99 1868.45 2998.75    5.67   12.23    1.53    0.72   47.22    9.27
 4079.14 1868.45  2998.9    5.67   12.23    1.62    0.71   52.13    9.31
 4079.29 1868.44 2999.05    4.57   11.56    1.68    0.66   57.03    9.33
 4079.44 1868.43  2999.2    4.02   10.29    1.66    0.61    59.5    9.36
  4079.6 1868.43 2999.35    2.91    7.75     1.6    0.59   56.85    9.41
 4079.75 1868.42 2999.51    3.99    7.69    1.57    0.56   54.03     9.4
  4079.9 1868.42 2999.66    6.14    7.59     1.6     0.6   56.09    9.38
 4080.05 1868.41 2999.81    7.22    7.54    1.66    0.63   63.32    9.35
 4080.21  1868.4 2999.96    6.26    8.25    1.71     0.7   58.56    9.35
 4080.36  1868.4 3000.12    4.33    9.64     1.8    0.75   58.62    9.34
 4080.51 1868.39 3000.27    4.39     9.1    1.97    0.69   49.33     9.3
 4080.66 1868.38 3000.42    4.49    8.02    2.23    0.58    44.8    9.37
 4080.81 1868.38 3000.57    4.49    8.02    2.29    0.47   45.12    9.44
 4080.97 1868.37 3000.73    4.91    8.21    2.07    0.49   49.67    9.45
 4081.12 1868.36 3000.88    5.11    8.31    1.82    0.57   58.57    9.41
 4081.27 1868.36 3001.03    4.24    7.47    1.73    0.61   58.72    9.44
 4081.42 1868.35 3001.18     3.8    7.05    1.71    0.64   56.85    9.44
 4081.58 1868.34 3001.33    3.36    6.63     1.7    0.65   57.26    9.46
 4081.73 1868.34 3001.49    3.59       6    1.64    0.65   55.45    9.48
 4081.88 1868.33 3001.64    3.58    5.85    1.57    0.62   58.67    9.52
 4082.03 1868.33 3001.79    3.57     5.7    1.52    0.63    58.4    9.54
 4082.19 1868.32 3001.94    3.55     5.4    1.48    0.63    56.2    9.55
 4082.34 1868.31  3002.1    3.55     5.4    1.46    0.65   53.31    9.49
 4082.49 1868.31 3002.25    3.41    4.88    1.45    0.62   55.44    9.42
 4082.64  1868.3  3002.4    3.41    4.88    1.44    0.62   56.36    9.36
  4082.8 1868.29 3002.55     3.8    5.07    1.46    0.61   53.72    9.37
 4082.95 1868.29  3002.7     3.8    5.07    1.53    0.62   55.86    9.37
  4083.1 1868.28 3002.86    3.71    5.02    1.62    0.64   55.01    9.38
 4083.25 1868.27 3003.01    3.74    5.02    1.68    0.65   61.96    9.41
 4083.41 1868.27 3003.16    3.76    5.02    1.67    0.63   56.52    9.43
 4083.56 1868.26 3003.31    3.78    5.02    1.66    0.63   58.28    9.45
 4083.71 1868.25 3003.47    3.83    5.07    1.66    0.63   55.75    9.41
 4083.86 1868.25 3003.62    3.88    5.12    1.64    0.63   56.33    9.39
 4084.02 1868.24 3003.77    3.98    5.26    1.61    0.61   57.94    9.32
 4084.17 1868.24 3003.92    4.18    5.53    1.59    0.63   59.58    9.32
 4084.32 1868.23 3004.08    4.18    5.53    1.61    0.63   60.83    9.34
 4084.47 1868.22 3004.23    3.78    5.14    1.59     0.6   61.06    9.35
 4084.62 1868.22 3004.38    3.78    5.14    1.53    0.59   59.84    9.38
 4084.78 1868.21 3004.53    3.78    5.01    1.46    0.61   58.78    9.37
 4084.93  1868.2 3004.68    3.78    4.95    1.43    0.66   57.78    9.34
 4085.08  1868.2 3004.84    3.78    4.83    1.42    0.67   57.02    9.32
 4085.23 1868.19 3004.99    3.78    4.78    1.44    0.68   56.76    9.34
 4085.39 1868.18 3005.14    3.78    4.72    1.45    0.65   55.15    9.36
 4085.54 1868.18 3005.29    3.67    4.69    1.49    0.64   60.47    9.39
 4085.69 1868.17 3005.45    3.45    4.64    1.53    0.61   61.19    9.42
 4085.84 1868.16  3005.6    3.45    4.64    1.55    0.62   61.79    9.45
    4086 1868.16 3005.75    3.49     4.7    1.56    0.63   61.16    9.49
 4086.15 1868.15  3005.9    3.49     4.7    1.58    0.63   60.97    9.52
  4086.3 1868.15 3006.05    4.04    4.59    1.63     0.6   60.18    9.46
 4086.45 1868.14 3006.21    4.28    4.01    1.71     0.6   59.73    9.48
 4086.61 1868.13 3006.36    4.28    4.01    1.76    0.63   60.38    9.48
 4086.76 1868.13 3006.51    4.08    3.66    1.73    0.66   60.43    9.47
 4086.91 1868.12 3006.66    3.45    3.47    1.71    0.65      63    9.42
 4087.06 1868.11 3006.82    3.43    3.43     1.7     0.6   63.86    9.41
 4087.22 1868.11 3006.97    4.43    3.22    1.69    0.61   62.15     9.4
 4087.37  1868.1 3007.12    4.57    3.14     1.7    0.63   60.44     9.4
 4087.52 1868.09 3007.27    4.25    3.18    1.78    0.65    59.1    9.37
 4087.67 1868.09 3007.43    3.64    3.25     1.9    0.64   58.33    9.32
 4087.83 1868.08 3007.58    3.64    3.25    2.04    0.66   53.74    9.27
 4087.98 1868.07 3007.73    3.72    3.18    2.18    0.62   54.61    9.18
 4088.13 1868.07 3007.88    3.72    3.19     2.3    0.52   54.35    9.23
