# LAS format log file from PETREL
# Project units are specified as depth units
#==================================================================
~Version information
VERS.   2.0:
WRAP.   NO:
#==================================================================
~Well
STRT .m           3250.08 :
STOP .m           4804.87 :
STEP .m            0.1524 :
NULL .        -999.250000 :
COMP.                     : COMPANY
WELL.            WELLB-32 : WELL
FLD.                      : FIELD
LOC.                      : LOCATION
SRVC.                     : SERVICE COMPANY
DATE.  Wednesday, March 31 2010 12:32:47   : DATE
PROV.                     : PROVINCE
UWI.                      : UNIQUE WELL ID
API.                      : API NUMBER
#==================================================================
~Curve
DEPT .m                   : DEPTH
TVD  .m                   : TRUE VERTICAL DEPTH
HRZDISP .m                : HORIZONTAL DISPLACEMENT
ILM .ohm.m                : ILM
ILD .ohm.m                : ILD
RHOB .g/cm3               : RHOB
NPHI .m3/m3               : NPHI
GR .gAPI                  : GR
CALI .in                  : CALI
~Parameter
#==================================================================
#DEPT    TVD     HRZDISP      ILM        ILD        RHOB       NPHI       GR         CALI
~Ascii
# ...
 3669.18 1896.71 2590.08    4.69    4.76    2.09    0.47   67.41    10.1
 3669.33  1896.7 2590.23    4.69    4.76    2.07    0.46   70.15   10.13
 3669.49 1896.69 2590.38     4.6    4.67    2.03    0.47   62.52   10.11
 3669.64 1896.67 2590.53    4.51    4.68    1.97     0.5   59.58   10.08
 3669.79 1896.66 2590.69    4.36    4.66    1.86    0.54   57.67   10.14
 3669.94 1896.64 2590.84    4.36    4.66    1.75    0.54   57.49   10.17
  3670.1 1896.63 2590.99    5.19    4.79    1.68    0.53    62.7   10.22
 3670.25 1896.62 2591.14     5.3    4.81    1.64    0.54   53.02   10.45
  3670.4  1896.6 2591.29    5.41    4.84    1.59    0.54   50.64   10.55
 3670.55 1896.59 2591.44    5.38    4.77    1.48    0.57   51.22    10.6
 3670.71 1896.58  2591.6     5.2    4.51    1.38    0.54   48.14   10.42
 3670.86 1896.56 2591.75    4.82    4.44    1.32     0.6    47.5   10.23
 3671.01 1896.55  2591.9    4.45    4.38    1.32    0.59   47.57   10.08
 3671.16 1896.54 2592.05    4.35    4.33    1.33    0.62   45.74    9.97
 3671.32 1896.52  2592.2    4.35    4.33    1.34    0.57   46.35     9.8
 3671.47 1896.51 2592.36    4.27    4.12    1.33     0.6   44.36     9.7
 3671.62  1896.5 2592.51    4.22    4.06     1.3    0.59   45.24    9.65
 3671.77 1896.48 2592.66    3.74    3.91     1.3    0.66   45.27    9.69
 3671.93 1896.47 2592.81    3.74    3.91    1.32    0.67   43.99    9.75
 3672.08 1896.46 2592.96    3.66    3.77    1.38    0.68   42.45    9.81
 3672.23 1896.44 2593.11    3.53    3.72    1.45    0.63   39.51    9.89
 3672.38 1896.43 2593.27     3.4    3.66    1.52     0.6   40.21    9.97
 3672.54 1896.42 2593.42    3.47    3.58    1.57     0.6   43.66   10.06
 3672.69  1896.4 2593.57    3.57    3.52    1.65    0.63   47.92   10.13
 3672.84 1896.39 2593.72    3.67    3.46    1.75    0.62   49.57   10.11
 3672.99 1896.38 2593.87    3.38    3.28    1.86     0.6    51.2   10.13
 3673.14 1896.36 2594.03    3.38    3.28    1.95    0.55   49.31   10.13
  3673.3 1896.35 2594.18    3.24    3.17    1.97    0.58    57.7   10.24
 3673.45 1896.33 2594.33    3.06    3.06     1.9    0.61   59.85   10.24
  3673.6 1896.32 2594.48    2.84    3.01     1.8    0.66   60.25   10.23
 3673.75 1896.31 2594.63    2.72    2.98    1.73    0.61    59.2   10.25
 3673.91 1896.29 2594.78    2.59       3     1.7    0.64   61.89    10.2
 3674.06 1896.28 2594.94    3.42    3.01    1.68    0.59   60.94   10.16
 3674.21 1896.27 2595.09    3.35    2.99    1.66    0.61   60.95   10.13
 3674.36 1896.25 2595.24    3.21    2.94    1.64    0.59   59.72   10.14
 3674.52 1896.24 2595.39    3.06    2.99    1.62     0.6    57.4   10.14
 3674.67 1896.23 2595.54    2.82       3    1.57    0.55   60.75   10.16
 3674.82 1896.21 2595.69    2.74    2.95     1.5    0.54   55.05   10.24
 3674.97  1896.2 2595.85    2.83    2.92    1.43    0.57   58.48   10.25
 3675.13 1896.19    2596    2.61    2.91     1.4    0.63   53.38    10.3
 3675.28 1896.17 2596.15    2.38    2.81    1.39    0.64   52.21   10.26
 3675.43 1896.16  2596.3    2.38    2.81    1.42    0.64   53.54   10.28
 3675.58 1896.15 2596.45    2.37    2.69    1.48    0.63   57.58   10.31
 3675.74 1896.13 2596.61    2.24    2.62    1.53    0.63   57.06   10.32
 3675.89 1896.12 2596.76    2.28    2.41    1.56    0.64   59.33    9.98
 3676.04 1896.11 2596.91    2.63     2.3    1.55    0.63   56.89    9.85
 3676.19 1896.09 2597.06    2.65    2.24    1.55    0.62    64.2   10.24
 3676.35 1896.08 2597.21    2.67    2.18    1.59    0.58   60.15   10.47
  3676.5 1896.06 2597.36    2.68     2.1    1.67    0.58   67.21    10.6
 3676.65 1896.05 2597.52    2.67    2.05    1.75    0.57   66.92   10.68
  3676.8 1896.04 2597.67    2.66    2.03     1.8    0.58   67.52   10.69
 3676.95 1896.02 2597.82    2.67    2.01    1.81    0.58    66.7   10.62
 3677.11 1896.01 2597.97    2.68    1.98    1.82    0.58   63.64   10.52
 3677.26    1896 2598.12    2.71    1.93    1.82    0.62   71.66   10.54
 3677.41 1895.98 2598.28    2.71    1.93    1.82    0.62   71.06   10.52
 3677.56 1895.97 2598.43    2.54    1.82    1.83    0.63   66.59   10.56
 3677.72 1895.96 2598.58    2.46     1.8    1.84    0.62   70.94   10.63
 3677.87 1895.94 2598.73     2.3    1.76    1.84    0.62   70.12   10.71
 3678.02 1895.93 2598.88    2.22    1.74    1.83    0.65   68.73   10.64
 3678.17 1895.92 2599.03    2.16    1.71    1.81    0.63   68.12   10.54
 3678.33  1895.9 2599.19    2.11    1.67    1.79    0.65   70.72   10.24
 3678.48 1895.89 2599.34    2.08    1.67    1.77    0.63   70.55   10.27
 3678.63 1895.88 2599.49    2.06    1.67    1.74    0.66   70.36   10.38
 3678.78 1895.86 2599.64    2.03    1.63    1.72    0.65   70.53   10.48
 3678.94 1895.85 2599.79    1.92    1.62    1.73    0.64   69.68   11.23
 3679.09 1895.84 2599.94    1.89    1.53    1.75    0.61   70.81   10.98
 3679.24 1895.82  2600.1    1.78    1.55    1.78    0.64    66.2    10.3
 3679.39 1895.81 2600.25    1.67    1.57     1.8    0.66   65.52   10.86
 3679.55  1895.8  2600.4    1.76    1.52    1.81    0.66   64.85   11.67
  3679.7 1895.78 2600.55    1.85    1.46    1.85    0.63   72.79   11.21
 3679.85 1895.77  2600.7    1.85    1.44    1.88    0.56   72.49   11.75
    3680 1895.66 2600.85    1.83    1.52    1.88    0.53   73.52   11.15
 3680.16 1895.65    2601    1.77    1.67    1.84    0.53   75.11   10.53
 3680.31 1895.64 2601.15    1.77    1.67    1.83    0.53   74.24   10.72
 3680.46 1895.62  2601.3    1.71    1.69    1.85    0.53   76.16   10.72
 3680.61 1895.61 2601.45    1.66    1.71    1.91    0.51   73.05   10.71
 3680.76 1895.59 2601.61     1.6    1.81       2    0.48   73.41   10.74
 3680.92 1895.58 2601.76    1.57    1.86     2.1    0.49   74.76   10.66
 3681.07 1895.56 2601.91     1.6    2.03    2.16    0.48   73.86   10.65
 3681.22 1895.55 2602.06    1.61    2.09    2.08    0.54    76.3   10.77
 3681.37 1895.53 2602.21    1.63    2.15    1.92    0.58   75.45   11.06
 3681.53 1895.52 2602.36    1.63    2.12    1.84    0.58    74.8   11.79
 3681.68  1895.5 2602.52    1.65    2.26    1.88    0.52   74.25   10.32
 3681.83 1895.49 2602.67    1.66    2.42    2.02    0.45   82.09   10.49
 3681.98 1895.47 2602.82    1.69    2.71    2.15    0.44   80.32   10.36
 3682.14 1895.46 2602.97     1.7    2.83    2.19    0.46   80.15   10.28
 3682.29 1895.44 2603.12    1.72    2.95    2.19    0.44   75.43   10.77
 3682.44 1895.43 2603.27    1.75    3.01    2.19    0.43   74.75   11.03
 3682.59 1895.41 2603.43    1.83    3.13    2.21    0.41   77.72   10.75
 3682.75  1895.4 2603.58    1.87    3.29    2.23     0.4    74.4   11.48
  3682.9 1895.38 2603.73    1.93    3.61    2.24     0.4   77.89   11.56
 3683.05 1895.37 2603.88    1.95    3.73    2.25    0.43   78.56   10.94
  3683.2 1895.35 2604.03    1.95     3.8    2.24    0.43    76.9   11.33
 3683.36 1895.34 2604.18     2.1    4.24    2.24    0.43   73.84   10.63
 3683.51 1895.32 2604.34    2.24    4.68    2.27    0.43   74.47     9.8
 3683.66 1895.31 2604.49    2.33    5.08    2.29    0.44   72.03    9.89
 3683.81 1895.29 2604.64    2.41    5.47     2.3    0.45   70.67   10.06
 3683.97 1895.28 2604.79    2.62    6.24    2.32    0.43   70.26   10.31
 3684.12 1895.26 2604.94    2.75    6.62    2.32    0.41   68.61   10.55
 3684.27 1895.25 2605.09    2.98    7.71     2.3    0.39   72.04    10.4
 3684.42 1895.23 2605.25    3.55    9.26    2.28    0.38   72.97    10.4
 3684.57 1895.22  2605.4    4.67   11.44    2.26    0.37    67.9   10.37
 3684.73  1895.2 2605.55    4.99   11.06    2.26    0.36   71.05   10.36
 3684.88 1895.19  2605.7     6.5   13.54    2.24    0.37   63.45   10.48
 3685.03 1895.17 2605.85    9.11   16.63    2.21    0.39   63.88   10.59
 3685.18 1895.16    2606   14.32    22.8    2.19    0.37   63.24    10.7
 3685.34 1895.14 2606.16   14.32    22.8    2.18    0.37   62.05   10.51
 3685.49 1895.13 2606.31   22.51   114.9    2.18    0.37    60.9   10.29
 3685.64 1895.11 2606.46   22.51  114.94    2.18    0.39   59.04   10.14
 3685.79  1895.1 2606.61   42.49 -999.25    2.18    0.39   61.91   10.03
