# LAS format log file from PETREL
# Project units are specified as depth units
#==================================================================
~Version information
VERS.   2.0:
WRAP.   NO:
#==================================================================
~Well
STRT .m           3250.08 :
STOP .m           4804.87 :
STEP .m            0.1524 :
NULL .        -999.250000 :
COMP.                     : COMPANY
WELL.            WELLB-32 : WELL
FLD.                      : FIELD
LOC.                      : LOCATION
SRVC.                     : SERVICE COMPANY
DATE.  Wednesday, March 31 2010 12:32:47   : DATE
PROV.                     : PROVINCE
UWI.                      : UNIQUE WELL ID
API.                      : API NUMBER
#==================================================================
~Curve
DEPT .m                   : DEPTH
TVD  .m                   : TRUE VERTICAL DEPTH
HRZDISP .m                : HORIZONTAL DISPLACEMENT
ILM .ohm.m                : ILM
ILD .ohm.m                : ILD
RHOB .g/cm3               : RHOB
NPHI .m3/m3               : NPHI
GR .gAPI                  : GR
CALI .in                  : CALI
~Parameter
#==================================================================
#DEPT    TVD     HRZDISP      ILM        ILD        RHOB       NPHI       GR         CALI
~Ascii
# ...
 3870.35 1878.13 2790.35   18.24 -999.25    2.06    0.41   60.53    9.62
  3870.5 1878.11  2790.5   17.32 -999.25    2.06    0.41   61.41    9.72
 3870.66  1878.1 2790.65   19.85 -999.25    2.06     0.4   63.21    9.86
 3870.81 1878.08  2790.8   23.31 -999.25    2.04    0.41   64.47    9.99
 3870.96 1878.07 2790.95   26.32 -999.25    2.02    0.41    64.1   10.12
 3871.11 1878.05  2791.1   29.33 -999.25       2    0.41   63.97   10.17
 3871.26 1878.04 2791.26    30.8 -999.25    2.01    0.38   64.11   10.08
 3871.42 1878.02 2791.41    30.8 -999.25    2.02    0.39   64.94    9.75
 3871.57 1878.01 2791.56   30.15 -999.25    2.04    0.41   66.65    9.68
 3871.72 1877.99 2791.71   28.69 -999.25    2.05    0.41   67.08    9.73
 3871.87 1877.98 2791.86   24.88 -999.25    2.07     0.4   67.11    9.85
 3872.03 1877.96 2792.01   24.12 -999.25    2.08    0.37   65.34    9.92
 3872.18 1877.95 2792.17   22.61   89.56    2.08    0.37   66.07   10.05
 3872.33 1877.93 2792.32   22.61  110.09    2.06    0.37   65.56   10.13
 3872.48 1877.92 2792.47   22.41  130.81    2.04     0.4   58.11   10.09
 3872.64  1877.9 2792.62   23.31   134.8    2.01    0.41   60.09   10.04
 3872.79 1877.89 2792.77   27.32  128.64    2.01    0.41   60.78   10.01
 3872.94 1877.87 2792.92   29.32  125.58    2.01    0.41   60.55    10.1
 3873.09 1877.86 2793.08   27.74  129.76    2.03     0.4    63.6   10.12
 3873.25 1877.84 2793.23   25.35   88.64    2.04     0.4   62.77   10.08
  3873.4 1877.83 2793.38   33.83   88.32    2.05     0.4   64.78    9.92
 3873.55 1877.81 2793.53   42.31   88.04    2.06    0.41   64.29    9.97
  3873.7  1877.8 2793.68   37.77  114.16    2.06    0.43   63.88      10
 3873.86 1877.78 2793.83   35.69    67.3    2.08    0.44   66.99   10.04
 3874.01 1877.77 2793.99   31.42   59.96    2.09    0.43   65.99      10
 3874.16 1877.75 2794.14   23.73   50.92    2.12    0.42   65.68    9.94
 3874.31 1877.74 2794.29    20.3   49.19    2.15    0.39   67.92    9.95
 3874.47 1877.72 2794.44   13.54    43.3    2.15    0.39   70.85    9.97
 3874.62 1877.71 2794.59   13.53   43.29    2.12    0.39   70.17   10.05
 3874.77 1877.69 2794.74   16.68   38.69     2.1     0.4   69.74   10.13
 3874.92 1877.68  2794.9   14.74   32.76     2.1    0.41   68.18    10.1
 3875.07 1877.67 2795.05   12.88   31.62    2.13    0.41   65.61    9.94
 3875.23 1877.65  2795.2   13.29   29.69    2.15    0.41   64.48   10.03
 3875.38 1877.64 2795.35   14.11   25.85    2.15     0.4   69.24   10.12
 3875.53 1877.62  2795.5   13.82   24.51    2.14    0.38   68.79   10.07
 3875.68 1877.61 2795.65   13.25   21.83    2.11    0.36   65.44   10.06
 3875.84 1877.59  2795.8   13.25   21.83    2.09    0.38   70.77   10.08
 3875.99 1877.58 2795.96   12.21    18.8    2.08    0.41   69.05    10.1
 3876.14 1877.56 2796.11   11.81   17.62    2.09    0.44      68   10.07
 3876.29 1877.55 2796.26   12.32   17.25    2.08    0.44   67.62   10.09
 3876.45 1877.53 2796.41   12.32   17.26    2.06    0.42    66.4   10.19
  3876.6 1877.52 2796.56   12.62   17.84    2.06     0.4   67.52    10.2
 3876.75  1877.5 2796.71   12.18   17.16    2.07    0.41   66.92   10.18
  3876.9 1877.49 2796.87   12.46   19.24    2.08    0.41   67.68   10.06
 3877.06 1877.47 2797.02   12.66   22.41    2.09    0.43    66.1   10.04
 3877.21 1877.46 2797.17   12.92   23.22    2.09    0.43   67.08   10.15
 3877.36 1877.44 2797.32   13.46   24.91    2.08    0.42   65.59   10.09
 3877.51 1877.43 2797.47   19.85   48.13    2.08    0.42   63.91    9.93
 3877.67 1877.41 2797.62   27.38   46.61     2.1    0.42   74.04    9.87
 3877.82  1877.4 2797.78   30.02   45.07    2.14    0.44   79.07     9.8
 3877.97 1877.38 2797.93    35.3      42    2.19    0.43   80.07    9.68
 3878.12 1877.37 2798.08   35.29   40.46    2.23    0.42   82.69    9.63
 3878.28 1877.35 2798.23   27.09   37.38    2.26    0.42   84.23    9.65
 3878.43 1877.34 2798.38   27.82   35.85    2.27    0.43   90.07    9.69
 3878.58 1877.32 2798.53      18   32.78    2.27    0.48   91.93    9.78
 3878.73 1877.31 2798.69   17.81   31.24    2.28    0.49   90.48   10.16
 3878.88 1877.29 2798.84    10.4   28.16    2.29    0.48   90.86   10.25
 3879.04 1877.28 2798.99   15.23   26.62    2.29    0.46   91.14   10.18
 3879.19 1877.26 2799.14   16.13   23.55    2.27    0.46   88.56   10.13
 3879.34 1877.25 2799.29    12.2      22    2.27    0.49    91.4    10.1
 3879.49 1877.23 2799.44    3.65   10.72    2.27    0.49   89.38      10
 3879.65 1877.22  2799.6    3.65   10.71    2.28     0.5   88.82   10.05
  3879.8  1877.2 2799.75     4.4    7.96    2.28    0.48   87.96   10.27
 3879.95 1877.19  2799.9    2.03    4.29    2.28    0.48   87.74   10.38
  3880.1 1877.44 2800.08    2.03    4.28    2.28    0.48   87.25   10.39
 3880.26 1877.43 2800.23    1.76    4.01    2.28    0.47   89.85   10.34
 3880.41 1877.42 2800.38    1.82    3.87    2.27    0.49   87.42   10.25
 3880.56 1877.41 2800.54       2    3.62    2.27     0.5   88.76   10.07
 3880.71  1877.4 2800.69    2.04    3.59    2.28    0.54   91.42   10.05
 3880.87 1877.39 2800.84    2.18    3.49    2.27    0.55   90.89   10.17
 3881.02 1877.38 2800.99    2.31    3.39    2.27    0.54   91.05   10.33
 3881.17 1877.37 2801.14    2.41    3.18    2.28    0.51   93.92   10.43
 3881.32 1877.36  2801.3    2.38    3.07    2.28    0.47   94.37   10.46
 3881.48 1877.35 2801.45    2.35    2.93    2.27    0.49   94.31   10.39
 3881.63 1877.33  2801.6    2.35    2.93    2.27    0.49   94.94   10.27
 3881.78 1877.32 2801.75    2.59    2.87    2.28    0.53   92.71   10.31
 3881.93 1877.31  2801.9    2.43    2.72    2.28    0.53    90.1   10.54
 3882.09  1877.3 2802.06    2.27    2.56     2.3    0.54   87.18   11.27
 3882.24 1877.29 2802.21    2.19    2.48    2.29    0.52   87.79   10.95
 3882.39 1877.28 2802.36    2.21    2.19    2.28    0.51   89.07   10.15
 3882.54 1877.27 2802.51    2.16     2.1    2.27    0.52   86.95   10.32
 3882.69 1877.26 2802.66    2.09    1.98    2.27    0.52   86.32   10.48
 3882.85 1877.25 2802.82    2.06    1.95    2.26     0.5   88.98   10.58
    3883 1877.24 2802.97    2.04    1.99    2.26     0.5   93.87   10.44
 3883.15 1877.23 2803.12    2.07    2.01    2.25     0.5   94.21   10.37
  3883.3 1877.22 2803.27    2.09    2.02    2.25    0.53   92.35   10.35
 3883.46  1877.2 2803.42    2.13    2.11    2.24    0.51    93.5   10.39
 3883.61 1877.19 2803.58    2.15    2.18    2.23    0.51   93.39   10.46
 3883.76 1877.18 2803.73    2.18    2.24    2.23    0.48   91.17   10.49
 3883.91 1877.17 2803.88    2.23    2.33    2.22    0.52   91.38   10.53
 3884.07 1877.16 2804.03    2.37    2.52    2.22    0.53   91.78   10.53
 3884.22 1877.15 2804.19    2.43    2.55    2.22    0.54   88.85   10.48
 3884.37 1877.14 2804.34     2.5    2.58    2.23    0.53    86.9   10.34
 3884.52 1877.13 2804.49    2.66    2.59    2.23    0.52   90.26   10.34
 3884.68 1877.12 2804.64    2.89    2.64    2.22    0.51   84.84   10.32
 3884.83 1877.11 2804.79    2.96    2.67    2.21    0.49   85.87   10.35
 3884.98  1877.1 2804.95    3.28    2.56     2.2    0.49   84.18   10.33
 3885.13 1877.09  2805.1    3.28    2.56    2.18    0.47   82.51   10.34
 3885.29 1877.07 2805.25    3.37    2.53    2.18    0.45    79.7    10.2
 3885.44 1877.06  2805.4    3.44    2.48     2.2    0.42   79.68   10.03
 3885.59 1877.05 2805.55    3.45    2.51    2.22    0.42   78.88      10
 3885.74 1877.04 2805.71    3.47    2.51    2.23    0.44   78.87   10.13
  3885.9 1877.03 2805.86     3.5     2.5    2.23    0.46   72.34   10.34
 3886.05 1877.02 2806.01    3.42    2.45    2.23    0.46   78.99   10.57
  3886.2 1877.01 2806.16    3.25    2.43    2.24    0.44   79.68   10.63
 3886.35    1877 2806.31    3.13    2.44    2.23    0.44   78.65   10.69
  3886.5 1876.99 2806.47       3    2.42    2.23    0.44    78.7   10.76
 3886.66 1876.98 2806.62    2.75    2.47    2.24    0.47   81.18   10.71
 3886.81 1876.97 2806.77    2.62    2.53    2.25    0.49   83.41   10.66
 3886.96 1876.96 2806.92    2.53    2.63    2.24    0.49   85.74   10.57
