# LAS format log file from PETREL
# Project units are specified as depth units
#==================================================================
~Version information
VERS.   2.0:
WRAP.   NO:
#==================================================================
~Well
STRT .m           3250.08 :
STOP .m           4804.87 :
STEP .m            0.1524 :
NULL .        -999.250000 :
COMP.                     : COMPANY
WELL.            WELLB-32 : WELL
FLD.                      : FIELD
LOC.                      : LOCATION
SRVC.                     : SERVICE COMPANY
DATE.  Wednesday, March 31 2010 12:32:47   : DATE
PROV.                     : PROVINCE
UWI.                      : UNIQUE WELL ID
API.                      : API NUMBER
#==================================================================
~Curve
DEPT .m                   : DEPTH
TVD  .m                   : TRUE VERTICAL DEPTH
HRZDISP .m                : HORIZONTAL DISPLACEMENT
ILM .ohm.m                : ILM
ILD .ohm.m                : ILD
RHOB .g/cm3               : RHOB
NPHI .m3/m3               : NPHI
GR .gAPI                  : GR
CALI .in                  : CALI
~Parameter
#==================================================================
#DEPT    TVD     HRZDISP      ILM        ILD        RHOB       NPHI       GR         CALI
~Ascii
# ...
 3970.93 1872.73 2890.78   78.88 -999.25    2.01    0.33   40.88    9.49
 3971.09 1872.72 2890.93   80.03 -999.25       2    0.33    43.8    9.51
 3971.24 1872.71 2891.09   80.61 -999.25    2.01    0.34   43.49    9.61
 3971.39 1872.71 2891.24   81.51 -999.25       2    0.33   42.64    9.76
 3971.54  1872.7 2891.39    82.9 -999.25       2    0.33   41.86    9.89
  3971.7 1872.69 2891.54   85.96 -999.25       2    0.32   42.57    9.91
 3971.85 1872.69  2891.7   87.61 -999.25       2    0.33   40.15    9.86
    3972 1872.68 2891.85    85.6 -999.25    1.99    0.32   41.63    9.83
 3972.15 1872.67    2892   86.94 -999.25    1.99    0.33   41.17    9.78
 3972.31 1872.67 2892.15   87.61 -999.25    1.98    0.33   38.39     9.8
 3972.46 1872.66  2892.3   85.05 -999.25    1.98    0.35    39.4    9.84
 3972.61 1872.65 2892.46   85.99 -999.25    1.99    0.36   38.97    9.82
 3972.76 1872.65 2892.61   84.05 -999.25    1.99    0.37   41.03    9.72
 3972.92 1872.64 2892.76   81.92 -999.25    2.01    0.35   41.64    9.53
 3973.07 1872.63 2892.91   84.05 -999.25    2.01    0.34   46.08     9.5
 3973.22 1872.63 2893.07   86.66 -999.25    2.02    0.33   46.99    9.45
 3973.37 1872.62 2893.22      86 -999.25    2.03    0.34    46.3    9.46
 3973.53 1872.61 2893.37   87.58 -999.25    2.03    0.37   42.39    9.54
 3973.68 1872.61 2893.52   91.31 -999.25    2.02    0.38   41.22    9.72
 3973.83  1872.6 2893.67   91.31 -999.25    2.01    0.37   42.73    9.83
 3973.98 1872.59 2893.83   85.33 -999.25    2.02    0.34   42.57    9.74
 3974.13 1872.59 2893.98   87.38 -999.25    2.04    0.34   40.44     9.6
 3974.29 1872.58 2894.13   88.72 -999.25    2.05    0.33   43.16    9.55
 3974.44 1872.57 2894.28   85.07 -999.25    2.06    0.34   42.09    9.51
 3974.59 1872.57 2894.44   83.86 -999.25    2.06    0.34    43.5    9.42
 3974.74 1872.56 2894.59   84.43 -999.25    2.06    0.35    39.9    9.43
  3974.9 1872.55 2894.74   85.07 -999.25    2.06    0.36    39.8    9.49
 3975.05 1872.55 2894.89   84.44 -999.25    2.04    0.35    45.8    9.54
  3975.2 1872.54 2895.04    86.8 -999.25    2.03    0.34   46.77     9.6
 3975.35 1872.53  2895.2   88.86 -999.25    2.02    0.33   44.96    9.66
 3975.51 1872.52 2895.35    87.5 -999.25    2.03    0.33   46.19    9.69
 3975.66 1872.52  2895.5   86.46 -999.25    2.03    0.34    46.1     9.7
 3975.81 1872.51 2895.65    86.8 -999.25    2.03    0.35   51.08    9.85
 3975.96  1872.5 2895.81   87.48 -999.25    2.02    0.37    51.5   10.06
 3976.12  1872.5 2895.96   87.48 -999.25    2.02    0.38   50.57   10.06
 3976.27 1872.49 2896.11   89.57 -999.25    2.03    0.38   52.29    9.96
 3976.42 1872.48 2896.26   91.02 -999.25    2.03    0.39   45.38    9.94
 3976.57 1872.48 2896.41   86.13 -999.25    2.02    0.38   51.58    9.89
 3976.73 1872.47 2896.57    86.8 -999.25    2.04    0.36   44.21    9.72
 3976.88 1872.46 2896.72   87.48 -999.25    2.04    0.34   48.84    9.55
 3977.03 1872.46 2896.87    86.8 -999.25    2.03    0.32   45.08    9.47
 3977.18 1872.45 2897.02   87.65 -999.25    2.02    0.32   45.47     9.4
 3977.34 1872.44 2897.18   87.47 -999.25    2.01    0.32    46.1     9.4
 3977.49 1872.44 2897.33    81.7 -999.25       2    0.34   47.76    9.43
 3977.64 1872.43 2897.48   81.69 -999.25       2    0.34   46.48    9.52
 3977.79 1872.42 2897.63   84.17 -999.25    2.01    0.35   48.58    9.58
 3977.94 1872.42 2897.78   84.18 -999.25    2.01    0.35    52.8    9.61
  3978.1 1872.41 2897.94   88.17 -999.25    2.02    0.36   54.65    9.56
 3978.25  1872.4 2898.09   85.87 -999.25    2.02    0.36   57.88    9.46
  3978.4  1872.4 2898.24   87.58 -999.25    2.02    0.36   60.86    9.37
 3978.55 1872.39 2898.39   89.28 -999.25    2.02    0.37   63.56     9.4
 3978.71 1872.38 2898.55   85.86 -999.25    2.02    0.38   64.87    9.52
 3978.86 1872.38  2898.7   82.07 -999.25    2.03    0.39   63.32    9.57
 3979.01 1872.34 2898.85   86.52 -999.25    2.03    0.41   61.96    9.61
 3979.16 1872.33    2899   83.92 -999.25    2.04     0.4   60.83     9.6
 3979.32 1872.33 2899.15   83.92 -999.25    2.04     0.4   61.41    9.52
 3979.47 1872.32 2899.31   86.68 -999.25    2.05    0.38   62.12    9.45
 3979.62 1872.31 2899.46   84.06 -999.25    2.05    0.36   61.25     9.4
 3979.77 1872.31 2899.61   81.45 -999.25    2.04    0.36    59.8    9.38
 3979.93  1872.3 2899.76   82.42 -999.25    2.03    0.38    58.4    9.42
 3980.08 1872.29 2899.92   78.32 -999.25    2.01    0.38   58.27    9.49
 3980.23 1872.28 2900.07   81.31 -999.25    2.01    0.36   59.57    9.53
 3980.38 1872.28 2900.22    84.3 -999.25    2.01    0.36   59.44    9.54
 3980.54 1872.27 2900.37   79.46 -999.25    2.03    0.36    61.6    9.46
 3980.69 1872.26 2900.52   79.45 -999.25    2.06    0.35   62.06    9.41
 3980.84 1872.26 2900.68   79.45 -999.25    2.08    0.33   64.08    9.41
 3980.99 1872.25 2900.83   80.37 -999.25    2.09    0.34   63.91    9.44
 3981.15 1872.24 2900.98   78.32 -999.25    2.08    0.35   69.29    9.52
  3981.3 1872.23 2901.13   83.67 -999.25    2.07    0.37   72.36    9.53
 3981.45 1872.23 2901.29   83.36 -999.25    2.06    0.36   72.24    9.59
  3981.6 1872.22 2901.44   83.04 -999.25    2.06    0.38   71.18    9.61
 3981.75 1872.21 2901.59   80.04 -999.25    2.05    0.38   70.86    9.57
 3981.91  1872.2 2901.74   80.03 -999.25    2.05    0.38   72.47    9.51
 3982.06  1872.2 2901.89   81.21 -999.25    2.05    0.38   69.11     9.5
 3982.21 1872.19 2902.05   83.08 -999.25    2.05     0.4   66.83    9.51
 3982.36 1872.18  2902.2   84.95 -999.25    2.04     0.4   65.24    9.51
 3982.52 1872.18 2902.35   81.82 -999.25    2.03    0.39   64.02    9.53
 3982.67 1872.17  2902.5   81.82 -999.25    2.03    0.38   61.94     9.6
 3982.82 1872.16 2902.66    81.8 -999.25    2.03    0.38   61.11    9.64
 3982.97 1872.15 2902.81   76.14 -999.25    2.03    0.37   63.74    9.63
 3983.13 1872.15 2902.96   76.13 -999.25    2.02    0.36   68.11    9.68
 3983.28 1872.14 2903.11   90.44 -999.25    2.02    0.36    68.8    9.69
 3983.43 1872.13 2903.26   83.04 -999.25    2.03    0.35   69.13     9.7
 3983.58 1872.12 2903.42    84.3 -999.25    2.04    0.35   69.23    9.73
 3983.74 1872.12 2903.57   79.46 -999.25    2.04    0.35   71.67     9.7
 3983.89 1872.11 2903.72   80.04 -999.25    2.03    0.37   70.62     9.7
 3984.04  1872.1 2903.87   82.18 -999.25    2.03    0.38   75.35    9.66
 3984.19  1872.1 2904.03   80.14 -999.25    2.03    0.37    70.6    9.63
 3984.35 1872.09 2904.18    78.1 -999.25    2.04    0.36   70.97    9.58
  3984.5 1872.08 2904.33   80.84 -999.25    2.04    0.35   68.06    9.64
 3984.65 1872.07 2904.48   84.05 -999.25    2.04    0.36   68.44    9.64
  3984.8 1872.07 2904.63   84.05 -999.25    2.04    0.36   69.29    9.74
 3984.96 1872.06 2904.79   78.37 -999.25    2.03    0.37   71.39    9.87
 3985.11 1872.05 2904.94   78.09 -999.25    2.03    0.38   72.59    9.93
 3985.26 1872.05 2905.09   77.54 -999.25    2.04    0.38   69.67    9.94
 3985.41 1872.04 2905.24      77 -999.25    2.05    0.38   70.76    9.91
 3985.56 1872.03  2905.4   80.04 -999.25    2.06    0.37   69.19    9.81
 3985.72 1872.02 2905.55   81.57 -999.25    2.06    0.37   69.16    9.52
 3985.87 1872.02  2905.7   81.57 -999.25    2.05    0.36   70.66    9.47
 3986.02 1872.01 2905.85    78.1 -999.25    2.04    0.37    66.6    9.48
 3986.17    1872    2906   73.85 -999.25    2.03    0.35   67.07     9.6
 3986.33 1871.99 2906.16   73.85 -999.25    2.03    0.35   68.12    9.75
 3986.48 1871.99 2906.31   76.21 -999.25    2.03    0.36    67.4    9.95
 3986.63 1871.98 2906.46   77.54 -999.25    2.02    0.36    64.8    9.96
 3986.78 1871.97 2906.61   77.87 -999.25    2.03    0.36   67.45    9.86
 3986.94 1871.97 2906.77   77.87 -999.25    2.03    0.37   66.92    9.73
 3987.09 1871.96 2906.92   74.17 -999.25    2.03    0.37   65.76    9.67
 3987.24 1871.95 2907.07   76.02 -999.25    2.02    0.39   68.35     9.7
 3987.39 1871.94 2907.22   77.87 -999.25    2.02    0.38   63.71    9.72
 3987.55 1871.94 2907.37      79 -999.25    2.02    0.38   64.48    9.69
