# LAS format log file from PETREL
# Project units are specified as depth units
#==================================================================
~Version information
VERS.   2.0:
WRAP.   NO:
#==================================================================
~Well
STRT .m           3250.08 :
STOP .m           4804.87 :
STEP .m            0.1524 :
NULL .        -999.250000 :
COMP.                     : COMPANY
WELL.            WELLB-32 : WELL
FLD.                      : FIELD
LOC.                      : LOCATION
SRVC.                     : SERVICE COMPANY
DATE.  Wednesday, March 31 2010 12:32:47   : DATE
PROV.                     : PROVINCE
UWI.                      : UNIQUE WELL ID
API.                      : API NUMBER
#==================================================================
~Curve
DEPT .m                   : DEPTH
TVD  .m                   : TRUE VERTICAL DEPTH
HRZDISP .m                : HORIZONTAL DISPLACEMENT
ILM .ohm.m                : ILM
ILD .ohm.m                : ILD
RHOB .g/cm3               : RHOB
NPHI .m3/m3               : NPHI
GR .gAPI                  : GR
CALI .in                  : CALI
~Parameter
#==================================================================
#DEPT    TVD     HRZDISP      ILM        ILD        RHOB       NPHI       GR         CALI
~Ascii
# ...
 4473.85 1865.47 3393.49   97.27  108.28    2.17    0.32   53.04    5.78
 4474.01 1865.47 3393.64   92.88  104.35    2.19    0.33   56.25     5.8
 4474.16 1865.48 3393.79   89.74  105.52    2.13    0.34   58.43    6.02
 4474.31 1865.48 3393.94   97.03  103.15    2.04    0.36   58.27    6.09
 4474.46 1865.49  3394.1   92.46  101.29       2    0.38   54.75    5.75
 4474.62 1865.49 3394.25   84.38  104.46    1.98     0.4   52.27    5.64
 4474.77 1865.49  3394.4   83.84   100.1    1.96    0.41   52.85    5.84
 4474.92  1865.5 3394.55   97.19  102.72    1.93    0.42   55.81    5.96
 4475.07  1865.5 3394.71   96.41  104.71    1.92    0.41   58.36    6.08
 4475.23 1865.51 3394.86   89.77  104.08    1.91     0.4   60.67    6.17
 4475.38 1865.51 3395.01  102.71  104.41    1.91    0.38   62.35    6.11
 4475.53 1865.51 3395.16  101.28  106.07     1.9    0.41    64.5    6.05
 4475.68 1865.52 3395.31   96.67  104.19     1.9    0.41   65.99     5.9
 4475.84 1865.52 3395.47   98.92  104.23     1.9    0.42    63.7    5.94
 4475.99 1865.53 3395.62   97.32  108.58    1.89     0.4   63.19    5.85
 4476.14 1865.53 3395.77   90.27  111.97    1.89    0.41   58.85    5.86
 4476.29 1865.53 3395.92  150.18  102.33    1.91    0.42   60.35    5.76
 4476.45 1865.54 3396.08   98.41   107.4    1.91    0.42   62.17    5.75
  4476.6 1865.54 3396.23   97.88  104.85    1.91    0.42   64.05     5.9
 4476.75 1865.55 3396.38  138.12  103.41    1.94    0.41   64.31    5.82
  4476.9 1865.55 3396.53    94.6   98.97       2     0.4   64.12    5.91
 4477.05 1865.55 3396.69    87.8  105.73    2.03    0.36   64.55    5.84
 4477.21 1865.56 3396.84    86.2  100.76    2.02    0.35   63.97    5.75
 4477.36 1865.56 3396.99  114.55   99.85    1.97    0.37   62.19    5.74
 4477.51 1865.57 3397.14     110  102.17    1.92    0.39   60.25    5.73
 4477.66 1865.57  3397.3   94.55   99.12    1.91    0.42   61.74    5.81
 4477.82 1865.57 3397.45   96.44   101.2     1.9    0.43    61.4    5.94
 4477.97 1865.58  3397.6   90.11  100.52     1.9    0.43   60.62    6.03
 4478.12 1865.58 3397.75  107.78   98.93     1.9    0.44   59.94    6.03
 4478.27 1865.59 3397.91   99.38   97.58    1.91    0.44   61.22    6.02
 4478.43 1865.59 3398.06   95.69  100.77    1.93    0.41   65.49     5.9
 4478.58 1865.59 3398.21   99.33   97.63    1.95     0.4   67.93    5.94
 4478.73  1865.6 3398.36   96.21   97.73    1.95    0.36   65.66    5.94
 4478.88  1865.6 3398.51   96.48   98.05    1.92    0.39   64.21    5.98
 4479.04 1865.61 3398.67   95.69   94.89     1.9    0.38   58.62    5.78
 4479.19 1865.61 3398.82      96   95.26     1.9    0.39   61.18    5.78
 4479.34 1865.61 3398.97    93.7    94.3    1.91     0.4   62.12    6.01
 4479.49 1865.62 3399.12   95.16   94.75     1.9    0.41   66.11    5.96
 4479.65 1865.62 3399.28   95.47   95.43     1.9     0.4   67.46    6.01
  4479.8 1865.63 3399.43   95.43   96.02     1.9    0.37   64.19    6.03
 4479.95 1865.63 3399.58   97.25   95.26    1.91    0.37   64.23    6.05
  4480.1 1865.63 3399.73   96.64   96.79    1.91    0.38   62.04    6.04
 4480.26 1865.64 3399.89   97.24   98.11    1.93    0.39   63.79    6.09
 4480.41 1865.64 3400.04   98.28    97.8    1.95    0.38   63.08    6.02
 4480.56 1865.64 3400.19   99.14   98.12    1.97    0.39   64.85    5.92
 4480.71 1865.65 3400.34   99.17   98.87    1.95    0.39   63.41     5.9
 4480.86 1865.65  3400.5   99.64   98.95    1.93     0.4   63.07     5.9
 4481.02 1865.66 3400.65   98.86   100.9    1.92     0.4   61.99    5.88
 4481.17 1865.66  3400.8   99.93    99.5    1.93    0.39   62.16    5.89
 4481.32 1865.66 3400.95  100.74  100.19    1.97    0.37   62.28    5.89
 4481.47 1865.67  3401.1  102.16  101.96       2    0.36   58.89    6.02
 4481.63 1865.67 3401.26  103.67  102.11    2.01    0.37   59.14    6.03
 4481.78 1865.68 3401.41  103.88  102.24    2.01    0.38   55.12    6.03
 4481.93 1865.68 3401.56  103.65  102.56    2.04    0.37   56.09    6.06
 4482.08 1865.68 3401.71   103.6  101.84    2.13    0.35   52.81    6.16
 4482.24 1865.69 3401.87  102.99  102.56    2.24    0.33   54.27    6.03
 4482.39 1865.69 3402.02  101.93   102.4    2.32    0.31   52.67    5.91
 4482.54  1865.7 3402.17  102.96  101.32    2.24    0.31   55.24    5.76
 4482.69  1865.7 3402.32  102.77   99.04    2.11    0.32   56.28    5.92
 4482.85  1865.7 3402.48   98.03   98.79       2    0.33   58.22    6.13
    4483 1865.71 3402.63   96.05   97.37    1.96    0.35   59.41    6.04
 4483.15 1865.71 3402.78   92.59   97.77    1.95    0.35   58.24     6.1
  4483.3 1865.72 3402.93   92.58   99.17    1.96    0.36   58.57    6.07
 4483.46 1865.72 3403.09   99.09  102.54    1.97    0.38   58.57    5.89
 4483.61 1865.72 3403.24  106.18  101.99    1.98    0.39    59.1    5.97
 4483.76 1865.73 3403.39  108.14  105.08    2.03    0.34   58.64     6.1
 4483.91 1865.73 3403.54  110.07  108.85    2.11    0.28   59.54    6.12
 4484.07 1865.74 3403.69  109.63  107.89    2.17    0.22   61.29    5.81
 4484.22 1865.74 3403.85  110.82  109.28    2.14    0.21   59.06    5.82
 4484.37 1865.74    3404   110.2   120.1    2.14     0.2    55.8    5.78
 4484.52 1865.75 3404.15  108.73  124.44    2.17    0.21   51.25    6.01
 4484.67 1865.75  3404.3  110.12   124.3    2.23     0.2   52.08    6.02
 4484.83 1865.76 3404.46  112.12  124.64    2.21     0.2   50.82    6.03
 4484.98 1865.76 3404.61  109.87  128.83    2.16     0.2   49.34    6.08
 4485.13 1865.76 3404.76  121.65  116.03    2.14    0.25   47.62     5.9
 4485.28 1865.77 3404.91   98.79  106.38    2.12    0.29   47.74    5.75
 4485.44 1865.77 3405.07   80.64  100.31    2.09    0.33    49.1    5.76
 4485.59 1865.78 3405.22   93.87   92.79    2.09    0.36   50.65    5.93
 4485.74 1865.78 3405.37   88.11   87.76    2.08    0.38    51.3     6.1
 4485.89 1865.78 3405.52   76.11    88.4    2.05    0.37   50.39    5.89
 4486.05 1865.79 3405.68   73.54   83.68    2.01    0.37   49.77       6
  4486.2 1865.79 3405.83   75.25   84.83    1.96    0.38   49.63    5.89
 4486.35  1865.8 3405.98      77   84.58    1.95    0.38   50.49    6.11
  4486.5  1865.8 3406.13   78.14   86.89    1.95    0.38   53.25    6.11
 4486.66  1865.8 3406.29   81.54   90.41    1.95    0.36   52.99    6.07
 4486.81 1865.81 3406.44   83.52   92.65    1.95    0.38    56.7    6.07
 4486.96 1865.81 3406.59   86.26   95.34    1.99    0.38   57.24    6.17
 4487.11 1865.82 3406.74   89.34    97.9    2.04     0.4    60.8    6.15
 4487.27 1865.82 3406.89   90.25  100.17    2.08    0.41   59.04    6.17
 4487.42 1865.82 3407.05    93.4    99.9    2.03     0.4   57.99    6.22
 4487.57 1865.83  3407.2   92.47   101.4    1.98    0.39   56.24    6.15
 4487.72 1865.83 3407.35   92.43  100.28    1.95    0.37   57.66    6.11
 4487.88 1865.84  3407.5   92.87  102.41    1.95    0.36   60.45    6.22
 4488.03 1865.84 3407.66   92.26  100.58    1.96    0.37   63.77    6.34
 4488.18 1865.84 3407.81   89.96   99.38    1.99     0.4   64.95    6.22
 4488.33 1865.85 3407.96   90.82  100.49    2.01     0.4   62.95    5.77
 4488.48 1865.85 3408.11   92.06   99.81       2     0.4   62.49       6
 4488.64 1865.86 3408.27   93.94   100.7       2    0.38   61.59    6.04
 4488.79 1865.86 3408.42   94.39   99.64    1.98    0.39   60.66    5.98
 4488.94 1865.86 3408.57   93.59   98.07    1.96    0.38   57.89    6.03
 4489.09 1865.87 3408.72   91.74   98.13    1.94    0.39   57.62    6.06
 4489.25 1865.87 3408.88   89.71   99.05    1.92     0.4    60.2    6.13
  4489.4 1865.88 3409.03   89.06   97.61    1.91    0.41   65.07    6.13
 4489.55 1865.88 3409.18   87.14   96.37     1.9     0.4   67.17    6.11
  4489.7 1865.88 3409.33   87.83   97.82    1.89     0.4   69.77    6.02
 4489.86 1865.89 3409.48   92.86   99.59    1.89     0.4   70.87    5.89
 4490.01 1865.89 3409.64   95.95  100.21    1.89     0.4   73.19    5.91
 4490.16 1865.89 3409.79   96.26  101.34     1.9    0.39   72.38    6.03
 4490.31  1865.9 3409.94   99.51  102.87     1.9     0.4   70.68    6.03
 4490.47  1865.9 3410.09  100.54  105.22    1.91     0.4   68.89    6.03
