# LAS format log file from PETREL
# Project units are specified as depth units
#==================================================================
~Version information
VERS.   2.0:
WRAP.   NO:
#==================================================================
~Well
STRT .m           3250.08 :
STOP .m           4804.87 :
STEP .m            0.1524 :
NULL .        -999.250000 :
COMP.                     : COMPANY
WELL.            WELLB-32 : WELL
FLD.                      : FIELD
LOC.                      : LOCATION
SRVC.                     : SERVICE COMPANY
DATE.  Wednesday, March 31 2010 12:32:47   : DATE
PROV.                     : PROVINCE
UWI.                      : UNIQUE WELL ID
API.                      : API NUMBER
#==================================================================
~Curve
DEPT .m                   : DEPTH
TVD  .m                   : TRUE VERTICAL DEPTH
HRZDISP .m                : HORIZONTAL DISPLACEMENT
ILM .ohm.m                : ILM
ILD .ohm.m                : ILD
RHOB .g/cm3               : RHOB
NPHI .m3/m3               : NPHI
GR .gAPI                  : GR
CALI .in                  : CALI
~Parameter
#==================================================================
#DEPT    TVD     HRZDISP      ILM        ILD        RHOB       NPHI       GR         CALI
~Ascii
# ...
 3769.77 1887.98 2690.27   23.73 -999.25    2.12    0.35   46.75    9.53
 3769.92 1887.97 2690.42   19.11 -999.25     2.1    0.34   40.78    9.53
 3770.07 1887.96 2690.57    12.4 -999.25    2.07    0.35   39.16    9.56
 3770.22 1887.95 2690.73   10.97 -999.25    2.07    0.35   39.78    9.59
 3770.38 1887.94 2690.88   12.68 -999.25    2.07    0.34   41.77    9.78
 3770.53 1887.93 2691.03    14.4 -999.25    2.07    0.32   41.56     9.7
 3770.68 1887.92 2691.18   25.03 -999.25    2.07    0.31   39.62    9.59
 3770.83 1887.91 2691.33   31.74 -999.25    2.07     0.3   35.67    9.48
 3770.99  1887.9 2691.49   51.85 -999.25    2.08     0.3   37.09    9.49
 3771.14 1887.89 2691.64    62.1 -999.25    2.08    0.32    35.7    9.48
 3771.29 1887.88 2691.79   63.61 -999.25    2.06    0.34   33.52    9.47
 3771.44 1887.87 2691.94    70.8 -999.25    2.06    0.33   38.61    9.54
  3771.6 1887.86  2692.1   78.56 -999.25    2.06    0.31   37.08    9.56
 3771.75 1887.85 2692.25    71.4 -999.25    2.05     0.3   37.05    9.79
  3771.9 1887.84  2692.4   62.02 -999.25    2.01    0.33   39.81    9.78
 3772.05 1887.83 2692.55   61.22 -999.25    1.98    0.36   39.01    9.77
  3772.2 1887.82  2692.7    60.5 -999.25    1.96    0.37      39    9.65
 3772.36 1887.81 2692.86   59.11 -999.25    1.96    0.36   40.92    9.71
 3772.51  1887.8 2693.01   54.68 -999.25    1.95    0.37    40.4    9.86
 3772.66 1887.79 2693.16   51.85 -999.25    1.95    0.36   40.12     9.9
 3772.81 1887.78 2693.31   51.85 -999.25    1.95    0.38   41.21    9.88
 3772.97 1887.77 2693.46   53.55 -999.25    1.97     0.4   42.08    9.89
 3773.12 1887.76 2693.62   52.43 -999.25    1.99    0.41   41.16     9.9
 3773.27 1887.75 2693.77   51.31 -999.25    1.98    0.39   43.58     9.7
 3773.42 1887.74 2693.92   51.31 -999.25    1.98    0.36   43.32    9.48
 3773.58 1887.73 2694.07    51.3 -999.25    1.98    0.35   44.47    9.39
 3773.73 1887.72 2694.22   45.56 -999.25    1.99    0.33   44.13     9.4
 3773.88 1887.71 2694.38    35.5 -999.25    1.99    0.34   41.87    9.53
 3774.03  1887.7 2694.53      36 -999.25       2    0.34   42.71    9.72
 3774.19 1887.69 2694.68   42.58 -999.25       2    0.36    40.7    9.84
 3774.34 1887.68 2694.83   49.16 -999.25    2.01    0.36   38.87    9.75
 3774.49 1887.67 2694.99      51 -999.25    2.01    0.34   40.51    9.64
 3774.64 1887.66 2695.14   52.84 -999.25    2.01    0.33   40.36    9.59
  3774.8 1887.65 2695.29   59.32 -999.25       2    0.32   38.28    9.54
 3774.95 1887.64 2695.44   62.55 -999.25       2    0.32   36.52    9.56
  3775.1 1887.63 2695.59   60.36 -999.25    1.99    0.34   35.92    9.62
 3775.25 1887.62 2695.75   57.02 -999.25       2    0.35   34.97    9.71
 3775.41 1887.61  2695.9   70.77 -999.25    2.03    0.36   36.53     9.8
 3775.56  1887.6 2696.05   72.05 -999.25    2.12    0.36   37.16    9.83
 3775.71 1887.59  2696.2   72.69 -999.25    2.24    0.36   35.52    9.77
 3775.86 1887.58 2696.35   40.03 -999.25    2.29    0.36   39.76    9.64
 3776.01 1887.57 2696.51   39.36 -999.25    2.12    0.35   40.61     9.6
 3776.17 1887.56 2696.66   42.71 -999.25    2.01    0.38   40.91    9.19
 3776.32 1887.55 2696.81    46.7 -999.25    1.99    0.41    40.8    9.13
 3776.47 1887.54 2696.96   37.56 -999.25    2.01    0.42   40.95    9.41
 3776.62 1887.53 2697.11   33.91 -999.25    2.04     0.4   42.08    9.61
 3776.78 1887.52 2697.27   30.26 -999.25    2.05    0.36   40.33     9.7
 3776.93 1887.51 2697.42   31.36 -999.25    2.04    0.31   37.82    9.79
 3777.08  1887.5 2697.57   29.22 -999.25    2.02    0.31    39.7    9.57
 3777.23 1887.49 2697.72   33.98 -999.25    1.99    0.33   39.07    9.27
 3777.39 1887.48 2697.87   38.31 -999.25    1.97    0.36   34.41    9.35
 3777.54 1887.47 2698.03   42.94 -999.25    1.97    0.37   36.96    9.46
 3777.69 1887.46 2698.18   50.37 -999.25    1.98    0.37   38.46    9.57
 3777.84 1887.45 2698.33   53.17 -999.25    2.01    0.35   37.83    9.69
    3778 1887.44 2698.48   52.62 -999.25    1.99    0.32   36.87    9.62
 3778.15 1887.43 2698.64   52.62 -999.25    1.99     0.3   36.05    9.61
  3778.3 1887.42 2698.79   53.75 -999.25    1.97    0.31   39.35    9.34
 3778.45 1887.41 2698.94   68.89 -999.25    1.95    0.36    41.2    9.44
 3778.61  1887.4 2699.09   73.99 -999.25    1.92    0.39   40.34    9.55
 3778.76  1887.4 2699.24   70.59 -999.25    1.94    0.39   38.58    9.73
 3778.91 1887.39  2699.4   70.61 -999.25    1.97    0.38   44.23    9.89
 3779.06 1887.38 2699.55   79.98 -999.25       2    0.38   43.68    9.95
 3779.22 1887.37  2699.7    89.3 -999.25    2.03    0.38    51.9    9.85
 3779.37 1887.36 2699.85   98.67 -999.25    2.05    0.39    54.5    9.53
 3779.52 1887.35    2700  155.34 -999.25    2.07     0.4   55.56    9.55
 3779.67 1887.34 2700.16  101.31 -999.25    2.09    0.42   54.96    9.52
 3779.82 1887.33 2700.31   101.3 -999.25    2.09    0.44   52.04    9.51
 3779.98 1887.32 2700.46  120.65 -999.25    2.09    0.45   58.78    9.55
 3780.13 1887.29 2700.61  133.41 -999.25     2.1    0.42   58.56    9.52
 3780.28 1887.28 2700.76  165.73 -999.25    2.11    0.41   60.84    9.52
 3780.43 1887.27 2700.91  169.27 -999.25    2.12     0.4   62.34    9.48
 3780.59 1887.26 2701.07  215.73 -999.25    2.14    0.43   64.97    9.47
 3780.74 1887.25 2701.22  239.06 -999.25    2.14    0.44   65.18    9.44
 3780.89 1887.24 2701.37  262.39 -999.25    2.15    0.46   67.91    9.32
 3781.04 1887.23 2701.52  167.18 -999.25    2.15    0.45   74.01    9.35
  3781.2 1887.22 2701.67   96.53 -999.25    2.17    0.45    76.5    9.39
 3781.35 1887.21 2701.83   43.22 -999.25    2.19    0.44   81.17    9.38
  3781.5  1887.2 2701.98   65.02 -999.25     2.2    0.42   82.79    9.39
 3781.65 1887.19 2702.13   50.12 -999.25    2.22    0.41   82.78    9.38
 3781.81 1887.17 2702.28   35.25 -999.25    2.24    0.41   88.67    9.37
 3781.96 1887.16 2702.43   16.27   52.46    2.23    0.41   78.63    9.37
 3782.11 1887.15 2702.59    7.87   25.82    2.19    0.43   80.31    9.34
 3782.26 1887.14 2702.74   12.08   23.11    2.15    0.45   79.05    9.33
 3782.42 1887.13 2702.89   14.18   21.77    2.13    0.46   73.25    9.32
 3782.57 1887.12 2703.04     4.9   28.97    2.13    0.47      77    9.32
 3782.72 1887.11 2703.19     5.3   27.08    2.14    0.45    71.6    9.35
 3782.87  1887.1 2703.35    6.48   20.96    2.12    0.45   76.33    9.35
 3783.03 1887.09  2703.5    7.66   14.85    2.11    0.43   75.38    9.34
 3783.18 1887.08 2703.65   11.06   12.25    2.11    0.44   74.06    9.33
 3783.33 1887.07  2703.8   11.07   12.25    2.12    0.46   74.44    9.27
 3783.48 1887.06 2703.95   14.35   11.44    2.14    0.45    77.1    9.22
 3783.63 1887.05 2704.11   14.35   11.44    2.14    0.45   78.22    9.21
 3783.79 1887.04 2704.26   13.93   10.66    2.13    0.44   73.19    9.23
 3783.94 1887.03 2704.41   13.92   10.66    2.13    0.45   76.12    9.33
 3784.09 1887.02 2704.56   13.38   10.22    2.13    0.46   75.71    9.44
 3784.24 1887.01 2704.71   11.83   10.09    2.13    0.44   74.65    9.41
  3784.4    1887 2704.87   11.09   10.07    2.13    0.44   75.11    9.37
 3784.55 1886.99 2705.02   10.35   10.07    2.14    0.42   72.73    9.33
  3784.7 1886.98 2705.17   15.57   10.99    2.13    0.43   75.32    9.25
 3784.85 1886.97 2705.32   21.74   12.06    2.14    0.45   77.74    9.23
 3785.01 1886.96 2705.47   26.92    12.6    2.16    0.46   78.34    9.26
 3785.16 1886.95 2705.63   27.48   12.91     2.2    0.44   77.15    9.35
 3785.31 1886.94 2705.78   22.86   12.69    2.24    0.41   80.43    9.42
 3785.46 1886.93 2705.93   19.62   11.89    2.29     0.4   77.09    9.43
 3785.62 1886.92 2706.08   18.66   11.67    2.32    0.41   76.41    9.46
 3785.77 1886.91 2706.23   15.92   11.04    2.31    0.45   73.02    9.43
 3785.92  1886.9 2706.39   14.54   10.72    2.31    0.48   80.07    9.43
 3786.07 1886.89 2706.54    4.75     6.9    2.35    0.42   64.12     9.4
 3786.23 1886.88 2706.69    1.92    7.15    2.46     0.3   60.99    9.51
 3786.38 1886.87 2706.84    2.34    8.68    2.62    0.17   55.58    9.67
